city,lon,lat,weather_id,weather_main,weather_description,temp,feels_like,temp_min,temp_max,pressure,humidity,visibility,wind_speed,wind_deg,rain_1h,clouds_all,sunrise,sunset
Toronto,-79.4163,43.7001,800,Clear,clear sky,5.67,0.41,5.05,6.4,1009,76,10000.0,10.28,300,0.0,0,1732364568,1732398361
Vancouver,-123.1193,49.2497,520,Rain,light intensity shower rain,6.73,4.5,5.76,7.58,1007,88,10000.0,3.13,124,18.86,75,1732376168,1732407743
Montreal,-73.5878,45.5088,804,Clouds,overcast clouds,5.6,1.8,5.08,6.12,1000,76,10000.0,5.66,300,0.0,100,1732363499,1732396632
Calgary,-114.0853,51.0501,804,Clouds,overcast clouds,-10.67,-17.67,-11.34,-10.03,1019,85,10000.0,8.23,350,0.0,100,1732374418,1732405156
Edmonton,-113.4687,53.5501,601,Snow,snow,-11.74,-17.76,-12.31,-11.22,1022,87,298.0,3.13,44,0.0,100,1732374923,1732404354
Ottawa,-75.6981,45.4112,804,Clouds,overcast clouds,6.25,4.33,5.24,6.8,1002,85,10000.0,2.57,260,0.0,100,1732363988,1732397157
Winnipeg,-97.147,49.8844,804,Clouds,overcast clouds,-7.36,-11.97,-7.96,-7.01,1019,85,10000.0,2.68,74,0.0,100,1732370072,1732401370
Quebec City,-71.2145,46.8123,804,Clouds,overcast clouds,4.01,4.01,3.12,4.19,996,95,10000.0,1.03,200,0.0,100,1732363183,1732395809
Hamilton,-79.9496,43.2334,801,Clouds,few clouds,5.12,1.67,4.8,6.05,1011,80,10000.0,4.63,270,0.0,20,1732364614,1732398571
Kitchener,-80.5112,43.4254,803,Clouds,broken clouds,4.06,2.03,3.84,4.21,1011,91,10000.0,2.24,270,0.0,75,1732364783,1732398672
Halifax,-63.5724,44.6453,501,Rain,moderate rain,8.49,3.19,7.61,9.0,974,94,10000.0,15.43,220,2.37,100,1732360932,1732394390
Victoria,-123.3693,48.4329,500,Rain,light rain,8.92,6.88,7.98,9.47,1007,84,10000.0,3.6,100,0.34,75,1732376048,1732407983
Regina,-104.6178,50.4501,601,Snow,snow,-11.03,-18.03,-11.09,-10.94,1015,84,805.0,7.72,90,0.0,100,1732371999,1732403029
Saskatoon,-106.6345,52.1168,601,Snow,snow,-9.43,-16.43,-11.12,-9.35,1017,86,604.0,6.17,80,0.0,100,1732372896,1732403101
St. John's,-52.7093,47.5649,501,Rain,moderate rain,5.89,1.59,5.66,6.75,1002,96,3219.0,7.2,130,0.25,100,1732358890,1732391217
Niagara Falls,-79.0663,43.1001,804,Clouds,overcast clouds,7.4,3.08,6.54,8.38,1010,73,10000.0,8.75,280,0.0,100,1732364379,1732398382
Lethbridge,-112.8186,49.7,601,Snow,snow,-10.94,-17.94,-10.94,-9.73,1017,85,1609.0,7.2,320,0.0,100,1732373795,1732405171
Kelowna,-119.4857,49.8831,803,Clouds,broken clouds,6.74,6.74,6.49,6.74,1007,73,10000.0,1.03,120,0.0,75,1732375439,1732406728
Red Deer,-113.802,52.2668,804,Clouds,overcast clouds,-11.73,-18.73,-11.73,-11.51,1020,85,3621.0,4.63,350,0.0,100,1732374657,1732404781
Brandon,-99.9531,49.8469,804,Clouds,overcast clouds,-9.84,-16.84,-9.84,-9.84,1019,85,9656.0,4.63,100,0.0,100,1732370737,1732402051
Moncton,-64.8019,46.1159,310,Drizzle,light intensity drizzle rain,5.97,1.69,5.27,6.85,969,99,2012.0,7.2,330,0.7,100,1732361505,1732394408
Fredericton,-66.6656,45.9454,501,Rain,moderate rain,3.01,-2.66,3.01,3.47,980,90,10000.0,8.75,340,1.13,100,1732361920,1732394888
Abbotsford,-122.2526,49.058,501,Rain,moderate rain,8.38,8.38,7.14,9.12,1007,80,10000.0,0.15,293,2.13,97,1732375917,1732407578
Barrie,-79.6663,44.4001,804,Clouds,overcast clouds,3.91,-0.1,3.16,4.73,1009,90,10000.0,5.14,290,0.0,100,1732364754,1732398296
Sherbrooke,-71.8991,45.4001,701,Mist,mist,2.14,-1.0,2.1,4.11,997,98,8047.0,3.09,290,0.0,100,1732363073,1732396247
Sudbury,-80.99,46.49,804,Clouds,overcast clouds,2.81,0.56,1.54,2.81,1009,83,10000.0,2.24,315,0.0,100,1732365467,1732398218
Thunder Bay,-89.3168,48.4001,804,Clouds,overcast clouds,-1.05,-6.0,-1.05,-1.01,1016,64,10000.0,4.63,330,0.0,100,1732367861,1732399822
Saint John,-66.0677,45.2727,701,Mist,mist,2.57,-3.86,2.57,2.57,978,93,4828.0,10.8,340,1.33,100,1732361648,1732394872
Charlottetown,-63.1267,46.2352,501,Rain,moderate rain,7.97,3.26,7.33,8.29,976,95,6437.0,11.18,149,1.33,100,1732361126,1732393983
Whitehorse,-135.0538,60.7161,801,Clouds,few clouds,-18.64,-18.64,-18.72,-17.77,1035,84,10000.0,0.0,0,0.0,20,1732382686,1732406954
Yellowknife,-114.3525,62.456,600,Snow,light snow,-14.71,-14.71,-14.71,-14.71,1034,78,10000.0,0.0,0,0.0,75,1732378594,1732401108
Iqaluit,-68.5145,63.7506,701,Mist,mist,-3.5,-3.5,-3.5,-3.15,1013,92,1006.0,1.03,0,0.0,100,1732368339,1732389356
Kamloops,-120.3192,50.6665,803,Clouds,broken clouds,3.22,3.22,2.64,4.53,1007,89,10000.0,0.0,0,0.0,75,1732375823,1732406744
Nanaimo,-123.936,49.1663,803,Clouds,broken clouds,7.16,3.39,6.72,7.87,1006,91,10000.0,6.69,120,0.0,75,1732376345,1732407958
Chilliwack,-121.9443,49.1747,804,Clouds,overcast clouds,7.79,7.79,7.77,8.03,1008,90,10000.0,0.51,240,0.0,98,1732375869,1732407478
Prince George,-122.753,53.9166,600,Snow,light snow,-9.73,-16.73,-10.21,-9.31,1020,87,10000.0,6.17,340,0.0,100,1732377258,1732406477
Medicine Hat,-110.6683,50.0501,601,Snow,snow,-6.56,-10.88,-7.45,-5.94,1012,84,2414.0,2.57,320,0.0,100,1732373359,1732404574
Drummondville,-72.4824,45.8834,804,Clouds,overcast clouds,3.34,3.34,2.8,3.34,998,89,10000.0,0.45,272,0.0,100,1732363305,1732396295
Fort McMurray,-111.381,56.7268,600,Snow,light snow,-13.27,-13.27,-13.27,-13.23,1028,85,1207.0,1.03,0,0.0,100,1732375404,1732402872
Peterborough,-78.3162,44.3001,801,Clouds,few clouds,3.94,-0.52,3.63,3.97,1007,87,10000.0,6.17,290,0.0,20,1732364411,1732397990
Laval,-73.692,45.57,804,Clouds,overcast clouds,5.99,3.63,5.51,6.55,1000,77,10000.0,3.09,310,0.0,100,1732363536,1732396645
Gatineau,-75.7016,45.4772,804,Clouds,overcast clouds,6.31,4.4,5.38,6.94,1002,85,10000.0,2.57,250,0.0,100,1732364001,1732397145
Trois-Rivières,-72.5491,46.3501,804,Clouds,overcast clouds,4.4,0.77,3.59,4.97,998,78,10000.0,4.63,310,0.0,100,1732363412,1732396220
Brossard,-73.4658,45.4501,804,Clouds,overcast clouds,6.21,2.57,5.7,6.73,1000,75,10000.0,5.66,300,0.0,100,1732363459,1732396614
Richmond Hill,-79.4372,43.8711,804,Clouds,overcast clouds,5.01,1.12,4.65,6.27,1009,80,10000.0,5.51,299,0.0,100,1732364604,1732398336
Brampton,-79.7663,43.6834,802,Clouds,scattered clouds,4.88,1.37,4.43,5.97,1010,80,10000.0,4.63,290,0.0,40,1732364649,1732398448
Markham,-79.2663,43.8668,804,Clouds,overcast clouds,5.41,1.65,5.01,6.37,1009,80,10000.0,5.45,299,0.0,100,1732364562,1732398296
Mississauga,-79.6583,43.5789,802,Clouds,scattered clouds,5.51,2.15,5.08,6.43,1010,78,10000.0,4.63,290,0.0,40,1732364605,1732398441
Oakville,-79.6829,43.4501,804,Clouds,overcast clouds,5.82,3.43,5.55,6.92,1010,77,10000.0,3.09,270,0.0,97,1732364588,1732398469
Burlington,-79.8371,43.3862,804,Clouds,overcast clouds,5.74,3.33,5.13,6.44,1010,78,10000.0,3.09,270,0.0,95,1732364614,1732398517
St. Catharines,-79.2496,43.1668,803,Clouds,broken clouds,7.76,2.84,6.46,8.47,1010,71,10000.0,11.83,280,0.0,75,1732364435,1732398414
Oshawa,-78.8496,43.9001,801,Clouds,few clouds,5.23,1.56,5.23,5.67,1008,87,10000.0,5.14,290,0.0,20,1732364468,1732398190
Whitby,-78.9329,43.8834,801,Clouds,few clouds,5.56,1.97,4.66,5.75,1009,84,10000.0,5.14,290,0.0,20,1732364485,1732398213
Guelph,-80.2497,43.5501,803,Clouds,broken clouds,3.93,-0.53,3.0,4.27,1010,82,10000.0,6.17,300,0.0,75,1732364742,1732398587
Kingston,-76.481,44.2298,804,Clouds,overcast clouds,6.11,2.44,6.11,6.73,1004,87,10000.0,5.66,260,0.0,100,1732363958,1732397562
Waterloo,-80.5164,43.4668,803,Clouds,broken clouds,4.12,2.1,3.64,4.27,1011,91,10000.0,2.24,270,0.0,75,1732364791,1732398666
Newmarket,-79.4663,44.0501,804,Clouds,overcast clouds,4.49,-0.14,3.63,4.49,1009,85,10000.0,6.99,301,0.0,100,1732364642,1732398311
Aurora,-79.4663,44.0001,804,Clouds,overcast clouds,4.28,-0.28,3.52,5.04,1009,84,10000.0,6.64,302,0.0,100,1732364634,1732398320
Pickering,-79.1329,43.9001,801,Clouds,few clouds,4.44,0.57,3.93,5.29,1009,83,10000.0,5.14,290,0.0,20,1732364536,1732398258
Milton,-64.7488,44.0669,500,Rain,light rain,6.5,4.25,5.83,6.86,975,94,358.0,3.09,270,0.22,100,1732361110,1732394777
Thunder Bay,-89.3168,48.4001,804,Clouds,overcast clouds,-1.05,-6.0,-1.05,-1.01,1016,64,10000.0,4.63,330,0.0,100,1732367861,1732399822
Welland,-79.2496,42.9834,804,Clouds,overcast clouds,6.84,3.06,6.64,7.99,1010,78,10000.0,6.48,289,0.0,100,1732364403,1732398446
Sault Ste. Marie,-84.3333,46.5168,804,Clouds,overcast clouds,3.16,-2.63,2.9,3.16,1012,87,10000.0,9.26,280,0.0,100,1732366276,1732399014
North Bay,-79.4663,46.3168,804,Clouds,overcast clouds,2.01,-2.2,2.01,2.75,1007,100,10000.0,4.63,300,0.0,100,1732365067,1732397886
Belleville,-77.3705,44.1788,803,Clouds,broken clouds,6.06,1.64,5.56,6.96,1006,75,10000.0,7.72,290,0.0,75,1732364162,1732397785
Timmins,-81.3331,48.4669,600,Snow,light snow,-1.1,-6.06,-1.1,-1.1,1009,100,10000.0,4.63,310,0.0,100,1732365957,1732397892
Cornwall,-74.7281,45.0181,804,Clouds,overcast clouds,6.06,3.39,6.06,6.06,1002,75,10000.0,3.6,260,0.0,100,1732363681,1732396998
Orillia,-79.4207,44.6087,501,Rain,moderate rain,3.48,-0.63,3.27,3.94,1008,95,10000.0,5.14,290,1.07,100,1732364733,1732398199
Midland,-79.883,44.7501,804,Clouds,overcast clouds,3.89,-1.66,3.89,3.89,1009,77,10000.0,9.24,309,0.0,100,1732364870,1732398284
Collingwood,-80.2164,44.4834,804,Clouds,overcast clouds,3.94,-1.29,3.94,3.94,1009,90,7882.0,8.25,298,0.0,100,1732364901,1732398413
Stratford,-80.9497,43.3668,804,Clouds,overcast clouds,3.31,3.31,3.31,3.4,1012,93,10000.0,0.89,274,0.0,93,1732364878,1732398788
Woodstock,-80.7497,43.1334,804,Clouds,overcast clouds,3.96,1.91,3.73,3.96,1012,94,10000.0,2.24,264,0.0,100,1732364789,1732398780
Cambridge,-80.3127,43.3601,803,Clouds,broken clouds,4.19,-0.28,4.18,4.5,1011,84,10000.0,6.35,296,0.0,75,1732364724,1732398636
Brantford,-80.2664,43.1334,804,Clouds,overcast clouds,5.24,1.41,5.24,5.24,1011,74,10000.0,5.51,291,0.0,94,1732364673,1732398664
Chatham,-65.432,47.0334,804,Clouds,overcast clouds,2.22,-4.41,2.22,2.22,977,94,8569.0,11.13,4,0.0,100,1732361838,1732394377
Leamington,-82.6062,42.0549,804,Clouds,overcast clouds,6.71,5.57,6.04,6.71,1014,30,10000.0,1.79,298,0.0,100,1732365052,1732399409
Niagara-on-the-Lake,-79.0663,43.2501,803,Clouds,broken clouds,7.77,2.86,7.25,8.61,1010,73,10000.0,11.83,280,0.0,75,1732364405,1732398356
Port Colborne,-79.2329,42.9001,804,Clouds,overcast clouds,6.64,2.18,4.92,7.17,1011,84,10000.0,8.43,293,0.0,100,1732364385,1732398456
Grimsby,-79.5663,43.2001,804,Clouds,overcast clouds,6.35,6.35,5.29,6.92,1010,84,10000.0,0.45,170,0.0,91,1732364517,1732398485
Thorold,-79.1996,43.1168,803,Clouds,broken clouds,7.26,2.17,6.72,8.08,1010,72,10000.0,11.83,280,0.0,75,1732364414,1732398411
St. Thomas,-81.1804,42.7736,804,Clouds,overcast clouds,5.27,1.1,5.14,6.24,1012,86,10000.0,6.35,295,0.0,100,1732364831,1732398945
Owen Sound,-80.9435,44.5672,804,Clouds,overcast clouds,4.48,4.48,4.38,5.21,1010,89,10000.0,0.89,262,0.0,100,1732365091,1732398572
Wasaga Beach,-80.0164,44.5168,804,Clouds,overcast clouds,4.89,-0.3,4.89,4.89,1009,73,10000.0,9.08,304,0.0,100,1732364859,1732398358
Haliburton,-78.5076,45.0459,804,Clouds,overcast clouds,1.9,-2.37,1.9,1.9,1007,85,10000.0,4.7,293,0.0,100,1732364594,1732397899
Pembroke,-77.1162,45.8168,804,Clouds,overcast clouds,3.43,-0.63,3.43,3.43,1004,85,10000.0,5.0,297,0.0,100,1732364406,1732397420
Renfrew,-76.6827,45.4668,804,Clouds,overcast clouds,3.15,-1.64,3.15,3.15,1004,93,2587.0,6.44,298,0.0,99,1732364235,1732397382
Smiths Falls,-76.0161,44.9001,804,Clouds,overcast clouds,5.66,2.32,5.66,5.66,1003,90,10000.0,4.67,282,0.0,86,1732363968,1732397328
Arnprior,-76.3494,45.4334,804,Clouds,overcast clouds,6.99,3.25,6.45,6.99,1003,96,,6.48,294,0.0,94,1732364148,1732397309
Brockville,-75.6826,44.5834,804,Clouds,overcast clouds,5.42,4.64,5.14,6.08,1003,89,10000.0,1.34,224,0.0,98,1732363830,1732397307
Prescott,-75.516,44.7168,701,Mist,mist,5.87,4.32,5.04,5.98,1003,87,9656.0,2.06,230,0.0,100,1732363815,1732397242
Gananoque,-76.1661,44.3334,804,Clouds,overcast clouds,6.39,2.64,6.08,6.62,1004,87,10000.0,6.06,282,0.0,98,1732363901,1732397468
Carleton Place,-76.1494,45.1334,804,Clouds,overcast clouds,6.3,3.98,5.42,6.61,1003,94,6639.0,3.13,310,0.0,88,1732364044,1732397317
Almonte,-76.1958,45.2299,500,Rain,light rain,6.46,4.17,5.5,6.7,1003,93,1768.0,3.13,310,0.15,87,1732364073,1732397310
Perth,-76.2494,44.9001,804,Clouds,overcast clouds,5.59,2.2,5.48,5.59,1003,91,7188.0,4.73,290,0.0,93,1732364024,1732397384
Huntsville,-79.2163,45.3334,804,Clouds,overcast clouds,1.85,-2.08,1.85,1.85,1008,96,10000.0,4.11,298,0.0,100,1732364818,1732398015
Parry Sound,-80.033,45.3501,804,Clouds,overcast clouds,4.03,0.68,4.03,4.03,1009,81,10000.0,3.98,318,0.0,100,1732365017,1732398208
Gravenhurst,-79.3663,44.9168,804,Clouds,overcast clouds,4.1,1.36,3.08,4.1,1008,87,10000.0,3.09,320,0.0,100,1732364776,1732398129
Bracebridge,-79.3163,45.0334,804,Clouds,overcast clouds,4.27,0.36,4.27,4.27,1008,81,10000.0,5.14,320,0.0,100,1732364786,1732398095
Haliburton,-78.5076,45.0459,804,Clouds,overcast clouds,1.9,-2.37,1.9,1.9,1007,85,10000.0,4.7,293,0.0,100,1732364594,1732397899
Barrie,-79.6663,44.4001,804,Clouds,overcast clouds,3.91,-0.1,3.16,4.73,1009,90,10000.0,5.14,290,0.0,100,1732364754,1732398296
Orillia,-79.4207,44.6087,501,Rain,moderate rain,3.48,-0.63,3.27,3.94,1008,95,10000.0,5.14,290,1.07,100,1732364733,1732398199
Kawartha Lakes,-78.8329,44.5834,804,Clouds,overcast clouds,2.81,-1.01,2.81,2.81,1008,83,10000.0,4.29,308,0.0,100,1732364587,1732398062
Lindsay,-78.7329,44.3501,804,Clouds,overcast clouds,3.2,-1.08,3.2,3.2,1008,98,10000.0,5.33,310,0.0,100,1732364520,1732398081
Cobourg,-78.1652,43.9598,804,Clouds,overcast clouds,5.99,3.31,4.39,5.99,1008,75,10000.0,3.6,310,0.0,94,1732364314,1732398015
Port Hope,-78.293,43.9512,804,Clouds,overcast clouds,5.88,3.17,5.88,5.88,1008,75,10000.0,3.6,310,0.0,95,1732364343,1732398047
Bowmanville,-78.6829,43.9168,500,Rain,light rain,5.31,1.66,5.31,5.75,1008,87,10000.0,5.14,290,0.19,20,1732364430,1732398147
Uxbridge,-79.1163,44.1001,804,Clouds,overcast clouds,3.49,-1.58,3.48,4.57,1009,81,10000.0,7.42,301,0.0,100,1732364567,1732398218
Newmarket,-79.4663,44.0501,804,Clouds,overcast clouds,4.49,-0.14,3.63,4.49,1009,85,10000.0,6.99,301,0.0,100,1732364642,1732398311
Aurora,-79.4663,44.0001,804,Clouds,overcast clouds,4.28,-0.28,3.52,5.04,1009,84,10000.0,6.64,302,0.0,100,1732364634,1732398320
Richmond Hill,-79.4372,43.8711,804,Clouds,overcast clouds,5.01,1.12,4.65,6.27,1009,80,10000.0,5.51,299,0.0,100,1732364604,1732398336
Markham,-79.2663,43.8668,804,Clouds,overcast clouds,5.41,1.65,5.01,6.37,1009,80,10000.0,5.45,299,0.0,100,1732364562,1732398296
Vaughan,-79.4983,43.8361,804,Clouds,overcast clouds,5.04,3.18,4.7,6.06,1009,79,10000.0,2.24,278,0.0,100,1732364612,1732398357
Brampton,-79.7663,43.6834,802,Clouds,scattered clouds,4.88,1.37,4.43,5.97,1010,80,10000.0,4.63,290,0.0,40,1732364649,1732398448
Mississauga,-79.6583,43.5789,802,Clouds,scattered clouds,5.51,2.15,5.08,6.43,1010,78,10000.0,4.63,290,0.0,40,1732364605,1732398441
Etobicoke,-79.5671,43.6542,802,Clouds,scattered clouds,5.63,0.48,5.18,6.53,1010,77,10000.0,9.77,290,0.0,40,1732364596,1732398405
North York,-79.4163,43.7668,800,Clear,clear sky,5.46,0.13,4.97,6.33,1009,77,10000.0,10.28,300,0.0,0,1732364580,1732398349
Scarborough,-79.2578,43.7731,800,Clear,clear sky,5.64,0.5,5.01,6.62,1009,75,10000.0,9.77,290,0.0,0,1732364543,1732398310
Whitby,-78.9329,43.8834,801,Clouds,few clouds,5.56,1.97,4.66,5.75,1009,84,10000.0,5.14,290,0.0,20,1732364485,1732398213
Oshawa,-78.8496,43.9001,801,Clouds,few clouds,5.23,1.56,5.23,5.67,1008,87,10000.0,5.14,290,0.0,20,1732364468,1732398190
Courtice,-78.7785,43.9122,801,Clouds,few clouds,5.01,1.28,5.01,5.44,1008,87,10000.0,5.14,290,0.0,20,1732364453,1732398170
Port Perry,-78.9444,44.1068,500,Rain,light rain,4.46,-0.21,3.62,4.71,1008,87,10000.0,7.07,302,0.69,100,1732364527,1732398175
Uxbridge,-79.1163,44.1001,804,Clouds,overcast clouds,3.49,-1.58,3.48,4.57,1009,81,10000.0,7.42,301,0.0,100,1732364567,1732398218
Brock,-108.718,51.4412,601,Snow,snow,-10.52,-17.52,-10.52,-10.52,1014,95,118.0,7.56,80,0.0,100,1732373225,1732403772
Ajax,-79.0329,43.8501,801,Clouds,few clouds,5.45,1.83,4.6,5.96,1009,84,10000.0,5.14,290,0.0,20,1732364503,1732398243
Pickering,-79.1329,43.9001,801,Clouds,few clouds,4.44,0.57,3.93,5.29,1009,83,10000.0,5.14,290,0.0,20,1732364536,1732398258
Milton,-64.7488,44.0669,500,Rain,light rain,6.5,4.25,5.83,6.86,975,94,358.0,3.09,270,0.22,100,1732361110,1732394777
Georgetown,-62.532,46.1834,804,Clouds,overcast clouds,8.1,3.24,8.1,8.1,979,73,10000.0,12.16,150,0.0,100,1732360973,1732393850
Acton,-80.0415,43.6297,804,Clouds,overcast clouds,3.67,-0.9,3.58,4.1,1010,75,10000.0,6.26,347,0.0,99,1732364706,1732398524
Caledon,-79.8583,43.8754,804,Clouds,overcast clouds,4.46,0.23,4.25,4.46,1010,86,10000.0,5.95,299,0.0,98,1732364705,1732398436
Orangeville,-80.0997,43.9168,804,Clouds,overcast clouds,2.73,-1.97,2.73,3.01,1010,93,3179.0,5.96,294,0.0,100,1732364771,1732398487
Shelburne,-80.2041,44.0787,500,Rain,light rain,2.2,-2.54,1.87,2.72,1010,94,,5.75,294,0.93,99,1732364825,1732398483
Alliston,-79.8663,44.1501,804,Clouds,overcast clouds,4.38,1.34,3.63,4.48,1009,85,10000.0,3.6,280,0.0,100,1732364756,1732398389
Bradford,-79.5663,44.1168,804,Clouds,overcast clouds,4.47,-0.2,3.72,4.58,1009,84,10000.0,7.08,301,0.0,100,1732364678,1732398323
Innisfil,-79.6496,44.3001,804,Clouds,overcast clouds,4.06,0.95,3.2,4.77,1009,88,10000.0,3.6,280,0.0,100,1732364731,1732398310
Beeton,-79.7844,44.079,804,Clouds,overcast clouds,4.28,1.22,4.08,4.58,1009,84,10000.0,3.6,280,0.0,100,1732364724,1732398382
Cookstown,-79.7017,44.1898,804,Clouds,overcast clouds,3.97,0.84,3.32,4.72,1009,83,10000.0,3.6,280,0.0,100,1732364724,1732398342
Tottenham,-79.8163,44.0168,804,Clouds,overcast clouds,4.12,-0.1,3.85,4.35,1009,87,10000.0,5.71,301,0.0,100,1732364721,1732398401
Keswick,-79.4663,44.2501,804,Clouds,overcast clouds,4.65,-0.13,3.32,4.9,1009,89,10000.0,7.56,300,0.0,100,1732364678,1732398275
Pefferlaw,-79.1996,44.3168,804,Clouds,overcast clouds,3.94,-1.18,3.94,4.94,1009,83,10000.0,7.92,305,0.0,100,1732364626,1732398199
Sutton,-72.6158,45.1001,804,Clouds,overcast clouds,3.99,2.13,3.61,4.47,999,87,8817.0,2.06,320,0.0,100,1732363189,1732396476
Mount Albert,-79.3091,44.1372,804,Clouds,overcast clouds,3.54,-1.52,3.54,4.41,1009,81,10000.0,7.42,301,0.0,100,1732364620,1732398257
Stouffville,-79.2496,43.9668,804,Clouds,overcast clouds,3.67,3.67,3.51,5.03,1009,82,10000.0,0.45,248,0.0,100,1732364576,1732398274
Ballantrae,-79.2972,44.0379,804,Clouds,overcast clouds,3.07,3.07,3.07,3.93,1009,81,10000.0,0.45,248,0.0,100,1732364600,1732398272
Uxbridge,-79.1163,44.1001,804,Clouds,overcast clouds,3.49,-1.58,3.48,4.57,1009,81,10000.0,7.42,301,0.0,100,1732364567,1732398218
Goodwood,-63.6732,44.6047,501,Rain,moderate rain,7.91,2.39,7.24,8.27,974,94,8894.0,15.43,220,2.11,100,1732360949,1732394422
Port Perry,-78.9444,44.1068,500,Rain,light rain,4.46,-0.21,3.62,4.71,1008,87,10000.0,7.07,302,0.69,100,1732364527,1732398175
Beaverton,-79.1496,44.4334,804,Clouds,overcast clouds,3.92,0.18,3.92,3.92,1008,93,10000.0,4.63,310,0.0,100,1732364636,1732398166
Sunderland,-79.0662,44.2634,804,Clouds,overcast clouds,4.02,-0.94,4.02,4.02,1008,86,10000.0,7.54,304,0.0,100,1732364585,1732398176
Cannington,-79.0329,44.3501,804,Clouds,overcast clouds,3.76,-0.89,3.76,3.76,1008,89,10000.0,6.5,307,0.0,100,1732364592,1732398153
Lindsay,-78.7329,44.3501,804,Clouds,overcast clouds,3.2,-1.08,3.2,3.2,1008,98,10000.0,5.33,310,0.0,100,1732364520,1732398081
Bobcaygeon,-78.542,44.5462,804,Clouds,overcast clouds,2.87,-1.36,2.87,2.87,1008,79,10000.0,5.07,306,0.0,100,1732364510,1732397999
Fenelon Falls,-78.7496,44.5334,804,Clouds,overcast clouds,2.97,-1.22,2.97,2.97,1008,80,10000.0,5.04,309,0.0,100,1732364558,1732398052
Omemee,-78.5599,44.299,801,Clouds,few clouds,3.27,-1.37,3.27,3.6,1008,98,10000.0,6.17,290,0.0,20,1732364470,1732398049
Norland,-78.8114,44.727,804,Clouds,overcast clouds,2.87,-1.12,2.87,2.87,1008,80,10000.0,4.62,306,0.0,100,1732364608,1732398031
Coboconk,-78.7996,44.6501,804,Clouds,overcast clouds,2.78,-1.18,2.78,2.78,1008,80,10000.0,4.52,307,0.0,100,1732364591,1732398042
Kirkfield,-78.9816,44.5654,804,Clouds,overcast clouds,3.7,-0.1,3.7,3.7,1008,93,10000.0,4.63,310,0.0,100,1732364619,1732398101
Kinmount,-78.6496,44.7834,804,Clouds,overcast clouds,2.53,-1.49,2.53,2.53,1008,82,10000.0,4.53,300,0.0,100,1732364580,1732397982
Haliburton,-78.5076,45.0459,804,Clouds,overcast clouds,1.9,-2.37,1.9,1.9,1007,85,10000.0,4.7,293,0.0,100,1732364594,1732397899
Minden,-78.7249,44.9254,804,Clouds,overcast clouds,2.23,-1.82,2.23,2.23,1008,84,10000.0,4.45,297,0.0,100,1732364624,1732397974
Gooderham,-78.3829,44.9001,804,Clouds,overcast clouds,1.85,-2.4,1.85,1.85,1007,83,10000.0,4.63,293,0.0,100,1732364537,1732397896
Wilberforce,-78.2162,45.0334,804,Clouds,overcast clouds,2.64,-1.54,2.64,2.64,1007,83,10000.0,4.86,292,0.0,100,1732364522,1732397831
Bancroft,-77.857,45.0575,804,Clouds,overcast clouds,2.97,0.0,2.92,2.97,1006,87,10000.0,3.09,300,0.0,100,1732364440,1732397741
Maynooth,-77.941,45.2296,804,Clouds,overcast clouds,2.29,-0.82,2.29,2.29,1006,87,10000.0,3.09,300,0.0,100,1732364492,1732397729
Barry's Bay,-77.6792,45.4883,804,Clouds,overcast clouds,2.18,-2.01,2.18,2.18,1005,85,8605.0,4.68,301,0.0,100,1732364478,1732397617
Eganville,-77.0994,45.5334,804,Clouds,overcast clouds,2.83,-1.29,2.83,2.83,1005,88,10000.0,4.83,299,0.0,100,1732364347,1732397470
Killaloe,-77.4153,45.5542,804,Clouds,overcast clouds,2.87,-1.19,2.87,2.87,1005,86,10000.0,4.75,299,0.0,100,1732364427,1732397541
Petawawa,-77.3328,45.9001,804,Clouds,overcast clouds,3.21,1.53,3.21,3.21,1005,85,10000.0,1.79,328,0.0,100,1732364474,1732397455
Deep River,-77.4995,46.1001,804,Clouds,overcast clouds,3.19,0.23,3.19,3.3,1005,89,10000.0,3.13,294,0.0,100,1732364552,1732397457
Chalk River,-77.4495,46.0168,804,Clouds,overcast clouds,3.21,-1.03,3.1,3.21,1005,85,10000.0,5.25,300,0.0,100,1732364524,1732397461
North Bay,-79.4663,46.3168,804,Clouds,overcast clouds,2.01,-2.2,2.01,2.75,1007,100,10000.0,4.63,300,0.0,100,1732365067,1732397886
Mattawa,-78.6996,46.3168,804,Clouds,overcast clouds,1.45,-2.77,1.45,1.45,1007,91,10000.0,4.43,297,0.0,99,1732364883,1732397702
Powassan,-79.3496,46.0334,804,Clouds,overcast clouds,2.22,-1.93,2.22,2.22,1008,83,10000.0,4.62,294,0.0,100,1732364984,1732397913
Sundridge,-79.3996,45.7668,804,Clouds,overcast clouds,1.13,-3.07,1.13,1.13,1008,83,10000.0,4.27,296,0.0,100,1732364944,1732397977
Burk's Falls,-79.3997,45.6168,804,Clouds,overcast clouds,1.98,-2.05,1.98,1.98,1008,83,10000.0,4.32,298,0.0,100,1732364916,1732398006
Magnetawan,-79.6439,45.6652,804,Clouds,overcast clouds,2.16,-1.8,2.16,2.16,1008,76,10000.0,4.27,303,0.0,100,1732364984,1732398055
Parry Sound,-80.033,45.3501,804,Clouds,overcast clouds,4.03,0.68,4.03,4.03,1009,81,10000.0,3.98,318,0.0,100,1732365017,1732398208
McKellar,-79.9193,45.508,804,Clouds,overcast clouds,3.6,0.59,3.6,3.6,1009,77,10000.0,3.31,307,0.0,100,1732365020,1732398151
Nobel,-80.0997,45.4168,804,Clouds,overcast clouds,3.9,0.53,3.9,3.9,1009,81,10000.0,3.96,317,0.0,100,1732365046,1732398211
Dunchurch,-79.8545,45.6456,804,Clouds,overcast clouds,2.5,-1.04,2.5,2.5,1008,76,10000.0,3.73,303,0.0,100,1732365031,1732398109
Port Loring,-79.983,45.9168,804,Clouds,overcast clouds,2.63,-0.54,2.63,2.63,1008,77,10000.0,3.26,298,0.0,100,1732365113,1732398088
Temagami,-79.7896,47.0626,804,Clouds,overcast clouds,0.14,-4.44,0.14,0.14,1008,89,7683.0,4.5,310,0.0,100,1732365293,1732397815
Cobalt,-79.683,47.4002,600,Snow,light snow,-0.34,-5.31,-0.34,-0.34,1007,95,,4.95,301,0.0,100,1732365336,1732397721
Haileybury,-79.6373,47.449,600,Snow,light snow,0.23,-4.72,0.23,0.23,1007,95,50.0,5.16,300,0.0,100,1732365335,1732397700
New Liskeard,-79.7153,47.4938,600,Snow,light snow,-0.11,-5.12,-0.11,-0.11,1007,94,309.0,5.11,299,0.0,100,1732365363,1732397709
Kirkland Lake,-80.0377,48.1446,600,Snow,light snow,0.16,-4.17,0.16,0.16,1007,93,261.0,4.12,310,0.0,100,1732365577,1732397651
Englehart,-79.8664,47.8169,600,Snow,light snow,0.31,-4.61,0.31,0.31,1007,93,9656.0,5.14,310,0.0,100,1732365467,1732397679
Matheson,-80.4665,48.5335,600,Snow,light snow,-1.26,-6.51,-1.26,-1.26,1008,96,191.0,5.03,305,0.0,100,1732365763,1732397670
Iroquois Falls,-80.6831,48.7669,600,Snow,light snow,-1.36,-6.48,-1.36,-1.36,1008,95,214.0,4.77,306,0.0,100,1732365866,1732397671
Cochrane,-114.4687,51.1834,804,Clouds,overcast clouds,-11.11,-18.11,-11.96,-10.44,1019,70,10000.0,6.69,350,0.0,100,1732374543,1732405215
Kapuskasing,-82.4331,49.4169,804,Clouds,overcast clouds,-2.0,-8.08,-2.0,-1.95,1010,100,10000.0,6.17,320,0.0,100,1732366431,1732397947
Hearst,-83.6665,49.6835,804,Clouds,overcast clouds,-2.28,-6.92,-2.28,-2.28,1011,86,6768.0,3.79,309,0.0,100,1732366787,1732398183
Moosonee,-80.6345,51.2793,601,Snow,snow,-2.0,-6.83,-2.0,-1.99,1006,93,2816.0,4.12,290,0.0,100,1732366437,1732397077
Fort Albany,-81.6825,52.213,600,Snow,light snow,-1.82,-8.28,-1.82,-1.82,1006,94,249.0,7.06,301,0.0,100,1732366925,1732397092
Kashechewan,-81.6166,52.3,600,Snow,light snow,-1.66,-8.43,-1.66,-1.66,1006,94,243.0,7.87,302,0.0,100,1732366932,1732397053
Timmins,-81.3331,48.4669,600,Snow,light snow,-1.1,-6.06,-1.1,-1.1,1009,100,10000.0,4.63,310,0.0,100,1732365957,1732397892
Foleyet,-82.4473,48.2419,804,Clouds,overcast clouds,-1.66,-6.27,-1.66,-1.66,1011,87,8253.0,3.93,307,0.0,100,1732366177,1732398208
Chapleau,-83.4034,47.8405,803,Clouds,broken clouds,-0.95,-3.64,-0.95,-0.95,1011,93,10000.0,2.06,310,0.0,75,1732366321,1732398522
Wawa,-84.7832,47.9834,802,Clouds,scattered clouds,-0.04,-1.86,-0.04,-0.04,1012,74,10000.0,1.54,10,0.0,40,1732366683,1732398823
White River,-85.272,48.5922,804,Clouds,overcast clouds,-2.52,-6.84,-2.52,-2.52,1013,79,10000.0,3.34,320,0.0,100,1732366930,1732398810
Marathon,-86.4332,48.7501,804,Clouds,overcast clouds,0.35,-1.42,0.35,0.35,1013,74,10000.0,1.54,340,0.0,99,1732367244,1732399054
Manitouwadge,-85.8403,49.1215,804,Clouds,overcast clouds,-2.25,-6.06,-2.25,-2.25,1013,76,10000.0,2.85,313,0.0,99,1732367183,1732398830
Terrace Bay,-87.1,48.7834,803,Clouds,broken clouds,-1.42,-6.47,-1.42,-1.42,1014,75,10000.0,4.64,318,0.0,74,1732367411,1732399207
Schreiber,-87.2646,48.8125,803,Clouds,broken clouds,-1.69,-7.03,-1.69,-1.69,1014,76,10000.0,5.0,317,0.0,80,1732367457,1732399240
Nipigon,-88.2667,49.0168,804,Clouds,overcast clouds,-1.07,-3.78,-1.07,-1.07,1015,64,10000.0,2.06,320,0.0,86,1732367743,1732399436
Red Rock,-88.2591,48.9426,803,Clouds,broken clouds,-0.81,-5.56,-0.81,-0.81,1015,64,10000.0,4.41,320,0.0,84,1732367725,1732399450
Thunder Bay,-89.3168,48.4001,804,Clouds,overcast clouds,-1.05,-6.0,-1.05,-1.01,1016,64,10000.0,4.63,330,0.0,100,1732367861,1732399822
Fort William,-52.7147,47.5721,502,Rain,heavy intensity rain,5.8,1.47,5.6,6.69,1002,96,3219.0,7.2,130,4.27,100,1732358893,1732391217
Nipigon,-88.2667,49.0168,804,Clouds,overcast clouds,-1.07,-3.78,-1.07,-1.07,1015,64,10000.0,2.06,320,0.0,86,1732367743,1732399436
Atikokan,-91.6216,48.7555,803,Clouds,broken clouds,-3.04,-5.94,-3.04,-3.04,1017,64,10000.0,1.96,333,0.0,66,1732368491,1732400298
Dryden,-92.7503,49.7833,804,Clouds,overcast clouds,-5.84,-9.35,-5.84,-5.84,1017,86,10000.0,2.06,360,0.0,100,1732368992,1732400338
Sioux Lookout,-91.917,50.1001,804,Clouds,overcast clouds,-4.96,-10.86,-4.96,-4.96,1018,80,10000.0,4.63,350,0.0,100,1732368865,1732400065
Kenora,-94.4337,49.8167,804,Clouds,overcast clouds,-5.46,-9.58,-5.68,-5.46,1018,79,10000.0,2.57,20,0.0,100,1732369405,1732400735
Fort Frances,-93.4003,48.5999,804,Clouds,overcast clouds,-4.16,-8.03,-4.41,-3.8,1017,80,10000.0,2.57,320,0.0,100,1732368885,1732400758
Rainy River,-94.5671,48.7166,804,Clouds,overcast clouds,-3.55,-5.6,-3.55,-3.55,1017,73,10000.0,1.39,21,0.0,94,1732369191,1732401013
Emo,-93.8357,48.6323,803,Clouds,broken clouds,-3.81,-6.54,-3.81,-3.81,1017,81,10000.0,1.76,353,0.0,73,1732368996,1732400856
Ear Falls,-93.2353,50.6395,804,Clouds,overcast clouds,-5.06,-9.67,-5.06,-5.06,1018,80,10000.0,3.09,310,0.0,90,1732369309,1732400254
Red Lake,-93.8337,51.0168,803,Clouds,broken clouds,-5.96,-10.75,-5.96,-5.96,1018,86,10000.0,3.09,330,0.0,75,1732369544,1732400307
Pickle Lake,-90.1625,51.479,804,Clouds,overcast clouds,-6.86,-12.81,-6.86,-6.86,1016,86,10000.0,4.12,310,0.0,100,1732368776,1732399312
Ignace,-91.659,49.4163,803,Clouds,broken clouds,-3.69,-7.35,-3.69,-3.69,1017,66,10000.0,2.46,328,0.0,69,1732368647,1732400160
Geraldton,-86.9484,49.7267,804,Clouds,overcast clouds,-3.0,-7.86,-3.0,-3.0,1014,72,10000.0,3.86,321,0.0,100,1732367586,1732398960
Longlac,-86.5396,49.7782,804,Clouds,overcast clouds,-2.77,-7.42,-2.77,-2.77,1013,74,10000.0,3.66,326,0.0,100,1732367499,1732398850
Nakina,-86.7107,50.1789,804,Clouds,overcast clouds,-3.57,-8.43,-3.57,-3.57,1014,70,10000.0,3.7,318,0.0,96,1732367633,1732398798
Hornepayne,-84.7705,49.2138,804,Clouds,overcast clouds,-3.26,-7.66,-3.26,-3.26,1012,83,10000.0,3.26,321,0.0,91,1732366947,1732398553
Hearst,-83.6665,49.6835,804,Clouds,overcast clouds,-2.28,-6.92,-2.28,-2.28,1011,86,6768.0,3.79,309,0.0,100,1732366787,1732398183
Smooth Rock Falls,-81.6331,49.2835,600,Snow,light snow,-1.54,-6.33,-1.54,-1.54,1009,96,,4.21,298,0.0,100,1732366208,1732397785
Kapuskasing,-82.4331,49.4169,804,Clouds,overcast clouds,-2.0,-8.08,-2.0,-1.95,1010,100,10000.0,6.17,320,0.0,100,1732366431,1732397947
Opasatika,-82.8665,49.5335,804,Clouds,overcast clouds,-2.38,-7.16,-2.38,-2.38,1011,91,7226.0,3.94,306,0.0,100,1732366561,1732398025
Missanabie,-84.0831,48.3168,804,Clouds,overcast clouds,-1.0,-4.53,-1.0,-1.0,1012,78,10000.0,2.82,321,0.0,100,1732366586,1732398584
Dubreuilville,-84.551,48.3491,804,Clouds,overcast clouds,-1.18,-4.38,-1.18,-1.18,1012,87,2202.0,2.46,314,0.0,100,1732366705,1732398690
Chapleau,-83.4034,47.8405,803,Clouds,broken clouds,-0.95,-3.64,-0.95,-0.95,1011,93,10000.0,2.06,310,0.0,75,1732366321,1732398522
Sudbury,-80.99,46.49,804,Clouds,overcast clouds,2.81,0.14,1.54,2.81,1009,85,10000.0,2.68,275,0.0,100,1732365467,1732398218
Val Caron,-81.0074,46.6103,804,Clouds,overcast clouds,1.4,-2.96,1.4,2.68,1009,86,10000.0,4.63,320,0.0,100,1732365495,1732398198
Hanmer,-80.9448,46.6531,804,Clouds,overcast clouds,1.33,-3.04,1.33,2.6,1009,86,10000.0,4.63,320,0.0,100,1732365489,1732398174
Capreol,-80.9225,46.706,804,Clouds,overcast clouds,1.26,-3.13,1.26,2.53,1009,86,10000.0,4.63,320,0.0,100,1732365494,1732398159
Chelmsford,-81.1998,46.5834,804,Clouds,overcast clouds,2.8,-0.95,2.8,2.8,1009,75,10000.0,4.18,323,0.0,100,1732365536,1732398249
Azilda,-81.1148,46.5521,804,Clouds,overcast clouds,2.76,-1.08,1.49,2.76,1009,85,10000.0,4.3,321,0.0,100,1732365509,1732398235
Garson,-80.8641,46.5559,804,Clouds,overcast clouds,1.39,-2.97,1.39,2.66,1009,86,10000.0,4.63,320,0.0,100,1732365450,1732398174
Lively,-81.1498,46.4334,804,Clouds,overcast clouds,2.79,-0.83,2.79,2.79,1009,85,10000.0,3.96,321,0.0,100,1732365494,1732398267
Copper Cliff,-81.0664,46.4668,804,Clouds,overcast clouds,2.81,-0.92,1.53,2.81,1009,85,10000.0,4.14,320,0.0,100,1732365481,1732398241
Dowling,-81.3342,46.5865,804,Clouds,overcast clouds,1.31,-2.65,1.31,1.31,1009,76,10000.0,3.97,326,0.0,100,1732365569,1732398281
Onaping,-81.4156,46.6234,804,Clouds,overcast clouds,0.71,-3.44,0.71,0.71,1009,78,10000.0,4.04,327,0.0,100,1732365596,1732398293
Levack,-81.3831,46.6334,804,Clouds,overcast clouds,0.81,-3.34,0.81,0.81,1009,77,10000.0,4.08,326,0.0,100,1732365590,1732398284
Espanola,-81.7665,46.2584,804,Clouds,overcast clouds,2.93,-0.42,2.93,2.93,1009,73,10000.0,3.6,302,0.0,100,1732365608,1732398449
Little Current,-81.9248,45.9793,804,Clouds,overcast clouds,3.59,1.07,3.59,3.59,1010,72,10000.0,2.68,36,0.0,100,1732365592,1732398542
Manitowaning,-81.8104,45.743,804,Clouds,overcast clouds,4.7,1.28,3.62,4.7,1010,67,10000.0,4.38,297,0.0,100,1732365519,1732398560
Wikwemikong,-81.7122,45.808,804,Clouds,overcast clouds,3.45,-1.07,3.45,4.54,1010,66,10000.0,6.0,303,0.0,100,1732365508,1732398524
Massey,-82.0831,46.2001,804,Clouds,overcast clouds,3.03,-0.99,3.03,3.03,1010,70,10000.0,4.74,304,0.0,100,1732365673,1732398537
Blind River,-82.9582,46.1834,804,Clouds,overcast clouds,3.26,-1.36,3.26,3.26,1011,68,10000.0,6.11,310,0.0,100,1732365880,1732398750
Elliot Lake,-82.6331,46.3834,804,Clouds,overcast clouds,1.37,-2.01,1.37,1.37,1010,76,10000.0,3.19,308,0.0,100,1732365841,1732398633
Thessalon,-83.5666,46.2501,804,Clouds,overcast clouds,2.3,-2.26,2.3,2.3,1011,86,10000.0,5.42,308,0.0,99,1732366039,1732398883
Iron Bridge,-83.2202,46.279,804,Clouds,overcast clouds,2.95,-1.45,2.95,2.95,1011,70,10000.0,5.45,310,0.0,100,1732365961,1732398794
Desbarats,-83.9332,46.3334,804,Clouds,overcast clouds,1.92,-1.76,1.92,1.92,1012,95,,3.76,303,0.0,100,1732366143,1732398954
Sault Ste. Marie,-84.3333,46.5168,804,Clouds,overcast clouds,3.16,-2.63,2.9,3.16,1012,87,10000.0,9.26,280,0.0,100,1732366276,1732399014
Prince,-108.3847,52.9669,601,Snow,snow,-8.91,-15.91,-8.91,-8.91,1018,94,136.0,6.05,73,0.0,100,1732373541,1732403296
Bruce Mines,-83.7999,46.3001,804,Clouds,overcast clouds,1.92,-1.95,1.92,1.92,1012,95,,4.04,306,0.0,100,1732366105,1732398929
Ruthven,-82.6706,42.0521,804,Clouds,overcast clouds,6.54,4.67,5.93,6.6,1014,42,10000.0,2.57,270,0.0,100,1732365067,1732399425
Amherstburg,-83.0499,42.1168,804,Clouds,overcast clouds,6.57,3.02,6.06,7.21,1014,76,10000.0,5.66,290,0.0,100,1732365169,1732399505
LaSalle,-73.6352,45.4304,804,Clouds,overcast clouds,6.14,2.48,5.56,6.64,1000,77,10000.0,5.66,300,0.0,100,1732363496,1732396658
Windsor,-83.0165,42.3001,804,Clouds,overcast clouds,7.01,3.58,6.14,7.2,1014,80,10000.0,5.66,290,0.0,100,1732365192,1732399466
Tecumseh,-82.8998,42.3168,804,Clouds,overcast clouds,7.1,3.69,6.17,7.23,1014,82,10000.0,5.66,290,0.0,100,1732365166,1732399435
Kingsville,-82.7387,42.0376,804,Clouds,overcast clouds,6.59,4.73,6.03,6.7,1014,44,10000.0,2.57,270,0.0,100,1732365081,1732399443
Leamington,-82.6062,42.0549,804,Clouds,overcast clouds,6.71,5.57,6.04,6.71,1014,30,10000.0,1.79,298,0.0,100,1732365052,1732399409
Essex,-82.8248,42.1751,804,Clouds,overcast clouds,6.6,3.06,5.99,7.12,1014,65,10000.0,5.66,290,0.0,100,1732365125,1732399441
Harrow,-82.9165,42.0334,804,Clouds,overcast clouds,6.12,4.17,6.02,6.97,1014,71,10000.0,2.57,270,0.0,100,1732365123,1732399487
Colchester,-82.9324,41.9855,804,Clouds,overcast clouds,6.11,4.16,6.07,6.96,1014,79,10000.0,2.57,270,0.0,100,1732365119,1732399498
Blenheim,-81.9998,42.3334,804,Clouds,overcast clouds,5.9,3.2,5.9,5.9,1014,87,10000.0,3.6,280,0.0,100,1732364953,1732399217
Chatham-Kent,-82.1831,42.4001,804,Clouds,overcast clouds,6.11,3.45,6.11,6.11,1014,87,10000.0,3.6,280,0.0,100,1732365008,1732399249
Banff,-115.5698,51.1762,804,Clouds,overcast clouds,-14.79,-14.79,-22.43,-14.79,1026,85,5837.0,1.03,50,0.0,96,1732461299,1732491823
Canmore,-115.3521,51.0834,804,Clouds,overcast clouds,-21.94,-26.6,-21.94,-20.66,1027,99,7805.0,1.44,240,0.0,98,1732461224,1732491794
Collingwood,-80.2164,44.4834,803,Clouds,broken clouds,1.02,-1.42,-0.66,1.16,1018,87,10000.0,2.13,317,0.0,61,1732451376,1732484773
Moose Jaw,-105.5344,50.4001,804,Clouds,overcast clouds,-14.86,-21.86,-14.86,-14.86,1027,85,8074.0,6.69,280,0.0,100,1732458698,1732489606
Prince Albert,-105.7677,53.2001,600,Snow,light snow,-13.03,-20.03,-13.03,-13.03,1028,78,4828.0,4.12,10,0.0,100,1732459477,1732488939
Lloydminster,-110.0016,53.2835,801,Clouds,few clouds,-16.88,-23.88,-16.88,-16.88,1032,92,10000.0,3.6,310,0.0,20,1732460518,1732489932
Fort Saskatchewan,-113.2187,53.7168,804,Clouds,overcast clouds,-13.63,-13.63,-13.64,-13.45,1033,78,2924.0,0.51,300,0.0,97,1732461413,1732490580
Spruce Grove,-113.9187,53.5334,804,Clouds,overcast clouds,-14.25,-14.25,-14.98,-14.15,1033,85,10000.0,0.0,0,0.0,100,1732461529,1732490801
Stony Plain,-114.0021,53.5334,804,Clouds,overcast clouds,-14.26,-14.26,-14.98,-14.15,1033,85,10000.0,0.0,0,0.0,100,1732461549,1732490821
Leduc,-113.552,53.2668,600,Snow,light snow,-15.06,-19.02,-15.12,-14.29,1034,85,10000.0,1.54,280,0.0,100,1732461366,1732490788
Beaumont,-113.4187,53.3501,600,Snow,light snow,-14.93,-18.88,-15.09,-14.26,1033,85,10000.0,1.54,290,0.0,100,1732461357,1732490732
Airdrie,-114.0353,51.3001,802,Clouds,scattered clouds,-18.84,-23.37,-19.2,-17.84,1035,100,10000.0,1.55,252,0.0,26,1732460961,1732491424
Cochrane,-114.4687,51.1834,802,Clouds,scattered clouds,-18.89,-25.52,-20.85,-18.22,1035,51,10000.0,2.57,170,0.0,40,1732461036,1732491557
Okotoks,-113.9828,50.7289,803,Clouds,broken clouds,-18.14,-22.86,-18.93,-17.73,1035,100,6965.0,1.67,235,0.0,82,1732460808,1732491553
Chestermere,-113.8187,51.0334,801,Clouds,few clouds,-18.45,-24.07,-20.23,-17.44,1036,84,10000.0,2.06,50,0.0,20,1732460843,1732491439
High River,-113.8687,50.5834,803,Clouds,broken clouds,-17.89,-22.16,-19.39,-17.89,1035,100,8410.0,1.5,243,0.0,74,1732460745,1732491561
Blackfalds,-113.7853,52.3834,804,Clouds,overcast clouds,-16.85,-16.85,-16.85,-16.85,1035,100,5340.0,1.01,225,0.0,90,1732461181,1732491084
Sylvan Lake,-114.0853,52.3168,804,Clouds,overcast clouds,-17.24,-17.24,-17.24,-17.24,1035,85,10000.0,1.03,0,0.0,100,1732461236,1732491174
Olds,-114.102,51.7834,802,Clouds,scattered clouds,-22.53,-28.49,-22.53,-17.92,1035,100,10000.0,1.91,229,0.0,45,1732461100,1732491317
Drayton Valley,-114.9854,53.2168,804,Clouds,overcast clouds,-18.84,-18.84,-18.84,-18.84,1033,99,8349.0,1.18,173,0.0,91,1732461696,1732491145
Grande Prairie,-118.8027,55.1667,803,Clouds,broken clouds,-18.9,-23.41,-18.9,-18.9,1032,84,10000.0,1.54,340,0.0,75,1732463190,1732491485
Medicine Hat,-110.6683,50.0501,801,Clouds,few clouds,-20.76,-26.76,-20.76,-20.45,1035,84,10000.0,2.06,230,0.0,20,1732459849,1732490920
Brooks,-111.8851,50.5834,802,Clouds,scattered clouds,-23.01,-23.01,-25.21,-23.01,1036,84,10000.0,1.03,250,0.0,27,1732460268,1732491085
Taber,-112.1518,49.8167,802,Clouds,scattered clouds,-25.0,-30.38,-25.0,-25.0,1036,77,7750.0,1.54,230,0.0,42,1732460150,1732491331
Crowsnest Pass,-114.4752,49.6287,804,Clouds,overcast clouds,-13.01,-18.54,-15.85,-13.01,1031,78,2803.0,2.57,150,0.0,100,1732460665,1732491932
Innisfail,-113.9507,52.0269,804,Clouds,overcast clouds,-17.34,-17.34,-17.34,-17.34,1035,85,10000.0,1.03,0,0.0,100,1732461127,1732491218
Camrose,-112.8353,53.0168,804,Clouds,overcast clouds,-21.26,-25.63,-21.26,-21.26,1034,100,3499.0,1.37,306,0.0,95,1732461124,1732490685
Wetaskiwin,-113.3687,52.9668,804,Clouds,overcast clouds,-15.33,-15.33,-15.33,-15.29,1034,100,2999.0,1.2,256,0.0,99,1732461239,1732490827
Wainwright,-110.8572,52.839,804,Clouds,overcast clouds,-20.68,-25.71,-20.68,-20.68,1033,100,3284.0,1.64,327,0.0,100,1732460600,1732490259
Stettler,-112.7186,52.3168,804,Clouds,overcast clouds,-23.18,-28.6,-23.18,-23.18,1035,100,3188.0,1.65,273,0.0,99,1732460907,1732490846
Vermilion,-110.8517,53.3669,804,Clouds,overcast clouds,-17.88,-22.25,-17.88,-17.88,1032,85,4122.0,1.54,290,0.0,100,1732460745,1732490112
Cold Lake,-110.2017,54.4502,600,Snow,light snow,-14.03,-21.03,-14.03,-14.03,1031,85,6437.0,3.6,320,0.0,100,1732460903,1732489642
Bonnyville,-110.735,54.2668,804,Clouds,overcast clouds,-14.11,-14.11,-14.11,-14.11,1032,99,2607.0,0.58,147,0.0,100,1732460977,1732489824
Whitecourt,-115.6855,54.1502,600,Snow,light snow,-15.42,-19.44,-15.42,-15.42,1030,85,3219.0,1.54,320,0.0,100,1732462132,1732491046
Hinton,-117.5857,53.4001,804,Clouds,overcast clouds,-13.94,-13.94,-13.94,-13.94,1029,98,4197.0,0.9,113,0.0,100,1732462373,1732491718
Edson,-116.4356,53.5835,600,Snow,light snow,-14.94,-18.89,-14.94,-14.92,1030,85,10000.0,1.54,100,0.0,75,1732462148,1732491390
Jasper,-118.0857,52.8833,804,Clouds,overcast clouds,-13.7,-18.52,-13.7,-13.63,1027,83,8573.0,2.06,30,0.0,91,1732462349,1732491981
Peace River,-117.286,56.2501,800,Clear,clear sky,-24.83,-24.83,-24.83,-24.83,1033,76,10000.0,0.0,0,0.0,0,1732463177,1732490769
Slave Lake,-114.769,55.2834,600,Snow,light snow,-14.01,-18.88,-14.01,-14.01,1031,72,10000.0,2.06,280,0.0,100,1732462257,1732490481
Fort McMurray,-111.381,56.7268,600,Snow,light snow,-17.27,-21.55,-18.23,-17.27,1033,78,10000.0,1.54,220,0.0,100,1732461921,1732489190
High Level,-117.136,58.5169,802,Clouds,scattered clouds,-20.94,-27.94,-20.94,-20.94,1030,84,10000.0,2.57,150,0.0,40,1732463968,1732489906
Lac La Biche,-111.9686,54.7669,804,Clouds,overcast clouds,-17.08,-17.08,-17.08,-15.72,1032,85,6467.0,0.51,330,0.0,96,1732461424,1732489970
Athabasca,-113.2854,54.7169,804,Clouds,overcast clouds,-16.12,-16.12,-16.12,-16.12,1032,99,1538.0,0.8,15,0.0,95,1732461725,1732490301
Morinville,-113.652,53.8001,804,Clouds,overcast clouds,-14.12,-14.12,-14.31,-14.12,1033,85,10000.0,0.0,0,0.0,100,1732461541,1732490660
Westlock,-113.8688,54.1502,804,Clouds,overcast clouds,-17.68,-17.68,-17.68,-17.68,1033,100,2221.0,0.48,87,0.0,98,1732461695,1732490610
Barrhead,-114.4021,54.1335,804,Clouds,overcast clouds,-17.18,-17.18,-17.18,-17.18,1032,99,2265.0,0.47,158,0.0,96,1732461819,1732490743
Smoky Lake,-112.4686,54.1169,804,Clouds,overcast clouds,-23.91,-23.91,-23.91,-23.91,1032,100,2980.0,0.81,5,0.0,95,1732461349,1732490284
Elk Point,-110.9017,53.9002,804,Clouds,overcast clouds,-18.0,-18.0,-18.0,-18.0,1032,100,5008.0,0.64,42,0.0,100,1732460909,1732489972
St. Paul,-111.2851,53.9835,804,Clouds,overcast clouds,-18.82,-23.14,-18.82,-18.82,1032,100,2516.0,1.47,40,0.0,99,1732461026,1732490039
Two Hills,-111.7518,53.7169,804,Clouds,overcast clouds,-19.08,-24.8,-23.93,-18.73,1033,84,1287.0,2.06,300,0.0,98,1732461061,1732490228
Vegreville,-112.0518,53.5001,804,Clouds,overcast clouds,-21.98,-28.98,-22.97,-18.83,1033,84,1213.0,3.09,310,0.0,99,1732461071,1732490362
Lamont,-112.8019,53.7669,804,Clouds,overcast clouds,-19.78,-19.78,-19.78,-19.78,1033,100,2616.0,1.26,251,0.0,99,1732461328,1732490466
Fort Saskatchewan,-113.2187,53.7168,804,Clouds,overcast clouds,-13.63,-13.63,-13.64,-13.45,1033,78,2924.0,0.51,300,0.0,97,1732461413,1732490580
Beaverlodge,-119.4361,55.2166,803,Clouds,broken clouds,-19.36,-19.36,-19.36,-19.36,1034,100,4964.0,0.43,33,0.0,72,1732463358,1732491621
Fairview,-118.3861,56.0668,803,Clouds,broken clouds,-22.95,-28.04,-22.95,-22.95,1033,77,6732.0,1.54,130,0.0,65,1732463380,1732491094
Spirit River,-118.8361,55.7833,803,Clouds,broken clouds,-22.76,-28.17,-22.76,-22.76,1033,100,10000.0,1.67,200,0.0,61,1732463395,1732491296
Rycroft,-118.7195,55.75,803,Clouds,broken clouds,-22.68,-28.46,-22.68,-22.68,1033,100,10000.0,1.82,197,0.0,63,1732463356,1732491278
Valleyview,-117.2859,55.0667,804,Clouds,overcast clouds,-15.51,-15.51,-15.51,-15.51,1031,98,1617.0,0.91,93,0.0,99,1732462794,1732491152
Fox Creek,-116.8024,54.4001,804,Clouds,overcast clouds,-13.68,-13.68,-13.68,-13.68,1030,94,750.0,1.08,114,0.0,98,1732462474,1732491240
Mayerthorpe,-115.1355,53.9502,804,Clouds,overcast clouds,-15.58,-15.58,-15.58,-15.58,1032,99,3435.0,0.84,165,0.0,98,1732461941,1732490973
Onoway,-114.2021,53.7001,804,Clouds,overcast clouds,-14.21,-14.21,-14.32,-14.21,1033,100,3573.0,0.47,167,0.0,97,1732461645,1732490821
Swan Hills,-115.4023,54.7168,804,Clouds,overcast clouds,-14.78,-18.7,-14.78,-14.78,1030,94,486.0,1.54,133,0.0,100,1732462234,1732490808
Drumheller,-112.7101,51.4617,803,Clouds,broken clouds,-15.37,-19.38,-15.37,-15.37,1036,78,3993.0,1.54,260,0.0,84,1732460684,1732491066
Trochu,-113.2186,51.8334,803,Clouds,broken clouds,-23.66,-28.31,-23.66,-23.66,1036,100,7055.0,1.36,297,0.0,58,1732460901,1732491093
Three Hills,-113.2686,51.7001,802,Clouds,scattered clouds,-24.19,-29.34,-24.19,-24.19,1036,100,6890.0,1.5,282,0.0,47,1732460879,1732491139
Hanna,-111.9018,51.6334,803,Clouds,broken clouds,-22.18,-29.18,-22.18,-22.18,1035,100,4807.0,2.73,304,0.0,82,1732460533,1732490828
Rocky Mountain House,-114.9188,52.3668,803,Clouds,broken clouds,-14.94,-19.97,-14.94,-14.94,1034,78,10000.0,2.06,120,0.0,81,1732461449,1732491361
Sundre,-114.6353,51.8001,803,Clouds,broken clouds,-22.84,-22.84,-22.84,-22.84,1034,92,10000.0,0.51,210,0.0,73,1732461233,1732491441
Carstairs,-114.102,51.5668,802,Clouds,scattered clouds,-23.17,-29.02,-23.17,-22.65,1035,100,10000.0,1.82,229,0.0,37,1732461045,1732491373
Didsbury,-114.1353,51.6668,802,Clouds,scattered clouds,-22.47,-28.45,-22.99,-22.47,1035,100,10000.0,1.92,227,0.0,43,1732461078,1732491355
Crossfield,-114.0353,51.4334,802,Clouds,scattered clouds,-19.23,-24.02,-19.23,-18.47,1035,100,10000.0,1.63,240,0.0,26,1732460995,1732491391
Amherst,-64.1987,45.8335,804,Clouds,overcast clouds,4.19,-0.79,2.21,4.28,992,81,10000.0,7.72,290,0.0,100,1732447784,1732480675
Antigonish,-61.9986,45.6169,500,Rain,light rain,3.96,0.57,3.64,4.1,990,95,3474.0,4.02,256,0.25,100,1732447214,1732480189
Digby,-65.7655,44.6169,804,Clouds,overcast clouds,2.53,-3.85,2.53,2.61,998,78,10000.0,10.59,286,0.0,100,1732447930,1732481282
Kentville,-64.4988,45.0835,500,Rain,light rain,3.24,-0.94,3.14,4.28,994,93,7573.0,5.14,240,0.51,100,1732447712,1732480891
Bridgewater,-64.5155,44.3835,804,Clouds,overcast clouds,3.8,-1.63,3.39,4.82,996,87,10000.0,8.75,280,0.0,100,1732447586,1732481025
Summerside,-63.7876,46.3959,500,Rain,light rain,3.1,-2.01,2.84,3.71,990,100,166.0,7.2,300,0.25,100,1732447796,1732480466
Alberton,-64.0654,46.8168,500,Rain,light rain,3.95,-1.38,3.07,3.95,989,97,65.0,8.58,292,0.41,100,1732447947,1732480448
Corner Brook,-57.9484,48.9667,500,Rain,light rain,5.09,5.09,5.09,5.09,986,95,10000.0,1.2,54,0.12,100,1732533420,1732564875
Gander,-54.5906,48.9682,501,Rain,moderate rain,5.09,5.09,5.07,5.09,986,100,6437.0,0.0,0,1.55,100,1732532614,1732564069
Grand Falls-Windsor,-55.6649,48.9332,500,Rain,light rain,5.84,4.65,5.84,5.84,986,95,8348.0,1.71,225,0.51,100,1732532864,1732564335
Labrador City,-66.9114,52.9463,600,Snow,light snow,-0.46,-5.57,-1.05,-0.46,1003,98,4828.0,5.14,30,0.0,100,1732450071,1732479691
Baie-Comeau,-68.1489,49.2168,500,Rain,light rain,1.82,-0.93,1.82,1.82,996,100,10000.0,2.57,320,0.0,100,1732449441,1732480914
Rimouski,-68.524,48.4488,601,Snow,snow,1.82,-3.56,1.1,1.82,997,99,60.0,6.96,327,0.0,100,1732449361,1732481174
Rouyn-Noranda,-79.0288,48.2398,804,Clouds,overcast clouds,-4.95,-10.02,-4.95,-4.95,1017,93,9656.0,3.6,280,0.0,100,1732451840,1732483739
Sept-Îles,-66.3821,50.2001,500,Rain,light rain,3.93,0.47,3.24,4.0,995,90,10000.0,4.12,20,0.25,100,1732449244,1732480263
Val-d'Or,-77.7828,48.1002,804,Clouds,overcast clouds,-3.95,-9.61,-3.95,-3.95,1016,86,10000.0,4.63,300,0.0,100,1732451510,1732483471
Granby,-72.7324,45.4001,804,Clouds,overcast clouds,0.79,-2.63,-0.71,1.14,1011,68,10000.0,3.09,260,0.0,96,1732449750,1732482806
Saint-Hyacinthe,-72.9491,45.6168,803,Clouds,broken clouds,0.68,-4.73,0.08,1.66,1011,74,10000.0,6.3,278,0.0,53,1732449844,1732482816
Joliette,-73.4492,46.0168,802,Clouds,scattered clouds,0.24,-4.68,-0.03,1.67,1011,77,10000.0,5.11,291,0.0,25,1732450042,1732482858
Shawinigan,-72.7491,46.5668,803,Clouds,broken clouds,0.22,-3.31,-0.43,1.23,1008,74,10000.0,3.09,300,0.0,51,1732449983,1732482581
Salaberry-de-Valleyfield,-74.1325,45.2501,801,Clouds,few clouds,0.01,-3.98,-0.69,0.97,1013,71,10000.0,3.6,270,0.0,15,1732450058,1732483170
Stratford,-80.9497,43.3668,803,Clouds,broken clouds,-1.68,-1.68,-2.31,0.1,1019,99,10000.0,0.49,19,0.0,71,1732451351,1732485151
Collingwood,-80.2164,44.4834,803,Clouds,broken clouds,1.02,-1.42,-0.66,1.16,1018,87,10000.0,2.13,317,0.0,61,1732451376,1732484773
Gravenhurst,-79.3663,44.9168,800,Clear,clear sky,-4.9,-4.9,-4.9,-3.58,1018,93,10000.0,0.0,0,0.0,0,1732451252,1732484489
Huntsville,-79.2163,45.3334,800,Clear,clear sky,-3.71,-6.06,-5.29,-3.71,1018,93,10000.0,1.54,323,0.0,3,1732451295,1732484374
Kenora,-94.4337,49.8167,804,Clouds,overcast clouds,-2.46,-6.54,-2.9,-2.46,1018,80,10000.0,3.09,120,0.0,100,1732455894,1732487081
Cobourg,-78.1652,43.9598,800,Clear,clear sky,0.98,0.98,-0.05,0.99,1018,86,10000.0,1.03,310,0.0,10,1732450788,1732484377
Port Hope,-78.293,43.9512,801,Clouds,few clouds,0.83,0.83,-1.7,0.88,1018,86,10000.0,1.03,310,0.0,13,1732450817,1732484409
Midland,-79.883,44.7501,802,Clouds,scattered clouds,-1.19,-4.52,-1.45,1.79,1018,70,10000.0,2.58,9,0.0,49,1732451345,1732484644
Bracebridge,-79.3163,45.0334,800,Clear,clear sky,-4.71,-4.71,-4.73,-3.15,1018,93,10000.0,0.0,0,0.0,0,1732451262,1732484455
Parry Sound,-80.033,45.3501,800,Clear,clear sky,-1.97,-4.57,-1.97,2.95,1018,80,10000.0,1.87,3,0.0,8,1732451495,1732484567
Brandon,-99.9531,49.8469,804,Clouds,overcast clouds,-9.84,-16.84,-9.84,-9.84,1021,79,10000.0,6.17,260,0.0,100,1732457227,1732488398
Portage la Prairie,-98.2926,49.9728,804,Clouds,overcast clouds,-7.28,-13.31,-9.94,-7.28,1019,63,10000.0,4.1,245,0.0,100,1732456857,1732487970
Steinbach,-96.6845,49.5258,804,Clouds,overcast clouds,-2.7,-5.18,-3.52,-2.38,1018,94,1044.0,1.71,181,0.0,100,1732456367,1732487688
Thompson,-97.8558,55.7435,600,Snow,light snow,-14.91,-21.91,-14.91,-14.91,1030,92,10000.0,6.17,40,0.0,100,1732458340,1732486278
Dauphin,-100.0502,51.1494,600,Snow,light snow,-6.92,-9.72,-6.92,-6.92,1018,93,10000.0,1.54,290,0.0,100,1732457564,1732488108
Flin Flon,-101.865,54.7682,600,Snow,light snow,-12.88,-19.88,-12.88,-12.88,1028,94,167.0,4.12,36,0.0,100,1732458996,1732487546
The Pas,-101.2541,53.8251,600,Snow,light snow,-11.99,-18.99,-11.99,-11.99,1025,79,2012.0,5.14,40,0.0,100,1732458570,1732487680
Selkirk,-96.8845,50.1436,600,Snow,light snow,-3.09,-3.09,-3.27,-1.96,1018,91,624.0,0.45,148,0.0,100,1732456559,1732487592
Winkler,-97.941,49.1817,804,Clouds,overcast clouds,-6.9,-13.64,-7.02,-6.0,1019,73,10000.0,5.14,300,0.0,100,1732456591,1732488068
Morden,-98.1014,49.1919,804,Clouds,overcast clouds,-7.15,-13.96,-8.76,-7.08,1020,73,10000.0,5.14,300,0.0,100,1732456632,1732488104
Estevan,-102.9842,49.1334,800,Clear,clear sky,-14.88,-21.88,-14.89,-14.32,1025,78,10000.0,7.72,290,0.0,0,1732457792,1732489288
Weyburn,-103.8511,49.6668,804,Clouds,overcast clouds,-14.88,-21.88,-14.88,-14.88,1025,85,7021.0,7.72,310,0.0,95,1732458122,1732489375
North Battleford,-108.2847,52.7834,600,Snow,light snow,-12.95,-19.17,-15.33,-12.95,1030,85,8047.0,3.09,310,0.0,100,1732459967,1732489658
Humboldt,-105.1255,52.2001,804,Clouds,overcast clouds,-14.65,-21.65,-14.65,-14.65,1026,94,5411.0,4.96,351,0.0,100,1732459052,1732489056
Martensville,-106.6679,52.2834,803,Clouds,broken clouds,-19.08,-26.08,-19.08,-19.08,1028,84,10000.0,4.63,330,0.0,75,1732459445,1732489404
Meadow Lake,-108.4347,54.1335,804,Clouds,overcast clouds,-14.22,-18.31,-14.22,-14.22,1030,98,2068.0,1.65,353,0.0,100,1732460385,1732489312
Melfort,-104.6177,52.8667,600,Snow,light snow,-13.93,-20.93,-13.93,-13.93,1027,85,278.0,4.12,10,0.0,100,1732459109,1732488756
Kindersley,-109.1682,51.4668,801,Clouds,few clouds,-21.99,-28.99,-21.99,-21.99,1031,84,10000.0,3.09,310,0.0,20,1732459834,1732490215
Warman,-106.5679,52.3168,803,Clouds,broken clouds,-19.05,-26.05,-19.05,-19.05,1028,84,10000.0,4.63,330,0.0,75,1732459429,1732489371
Moose Jaw,-105.5344,50.4001,804,Clouds,overcast clouds,-14.86,-21.86,-14.86,-14.86,1027,85,8074.0,6.69,280,0.0,100,1732458698,1732489606
Red Deer,-113.802,52.2668,804,Clouds,overcast clouds,-16.73,-16.73,-16.73,-16.73,1035,85,10000.0,1.03,0,0.0,100,1732461154,1732491119
Grande Prairie,-118.8027,55.1667,803,Clouds,broken clouds,-18.9,-23.41,-18.9,-18.9,1032,84,10000.0,1.54,340,0.0,75,1732463190,1732491485
Medicine Hat,-110.6683,50.0501,801,Clouds,few clouds,-20.76,-26.76,-20.76,-20.45,1035,84,10000.0,2.06,230,0.0,20,1732459849,1732490920
Brooks,-111.8851,50.5834,802,Clouds,scattered clouds,-23.01,-23.01,-25.21,-23.01,1036,84,10000.0,1.03,250,0.0,27,1732460268,1732491085
Wetaskiwin,-113.3687,52.9668,804,Clouds,overcast clouds,-15.33,-15.33,-15.33,-15.29,1034,100,2999.0,1.2,256,0.0,99,1732461239,1732490827
Camrose,-112.8353,53.0168,804,Clouds,overcast clouds,-21.26,-25.63,-21.26,-21.26,1034,100,3499.0,1.37,306,0.0,95,1732461124,1732490685
Lloydminster,-110.0016,53.2835,801,Clouds,few clouds,-16.88,-23.88,-16.88,-16.88,1032,92,10000.0,3.6,310,0.0,20,1732460518,1732489932
Banff,-115.5698,51.1762,804,Clouds,overcast clouds,-14.79,-14.79,-22.43,-14.79,1026,85,5837.0,1.03,50,0.0,96,1732461299,1732491823
Canmore,-115.3521,51.0834,804,Clouds,overcast clouds,-21.94,-26.6,-21.94,-20.66,1027,99,7805.0,1.44,240,0.0,98,1732461224,1732491794
Vernon,-119.2691,50.2581,500,Rain,light rain,1.89,0.34,1.63,3.75,1018,91,120.0,1.54,250,0.63,100,1732461964,1732492934
Penticton,-119.5858,49.4806,500,Rain,light rain,3.81,3.81,3.6,4.12,1017,93,10000.0,1.03,0,0.16,100,1732461859,1732493192
Courtenay,-124.9936,49.6866,520,Rain,light intensity shower rain,5.22,2.37,3.4,5.77,1015,86,10000.0,3.6,320,0.0,100,1732463205,1732494441
Parksville,-124.3195,49.3163,804,Clouds,overcast clouds,6.09,6.09,4.82,6.8,1015,99,10000.0,1.03,140,0.0,100,1732462959,1732494365
Qualicum Beach,-124.4361,49.3468,804,Clouds,overcast clouds,5.74,5.74,4.69,6.66,1015,99,10000.0,1.03,140,0.0,99,1732462994,1732494386
Campbell River,-125.2446,50.0163,701,Mist,mist,3.75,3.75,2.55,4.74,1015,100,9656.0,0.0,0,0.0,100,1732463343,1732494425
Cranbrook,-115.7688,49.4999,600,Snow,light snow,-3.09,-3.09,-3.09,-3.09,1025,93,10000.0,0.0,0,0.0,100,1732460946,1732492272
Kimberley,-115.9855,49.6833,600,Snow,light snow,-4.55,-4.55,-4.55,-4.55,1025,93,10000.0,0.0,0,0.0,100,1732461041,1732492281
Nelson,-117.2855,49.4999,500,Rain,light rain,3.08,1.07,2.45,3.08,1019,87,1225.0,2.06,120,0.17,100,1732461311,1732492635
Revelstoke,-118.2023,50.9832,600,Snow,light snow,0.01,-2.52,0.01,0.01,1018,100,4828.0,2.06,130,0.0,100,1732461884,1732492502
Dawson City,-139.4263,64.0625,804,Clouds,overcast clouds,-15.51,-15.51,-15.51,-15.51,1021,95,10000.0,1.13,102,0.0,100,1732472181,1732492395
Hay River,-115.7999,60.8156,801,Clouds,few clouds,-16.01,-23.01,-16.02,-16.01,1027,78,10000.0,6.17,190,0.0,20,1732464650,1732488583
Inuvik,-133.7218,68.3499,600,Snow,light snow,-16.55,-23.55,-18.44,-16.52,1011,89,9656.0,4.12,80,0.0,100,1732475048,1732486789
Tuktoyaktuk,-133.0374,69.4541,600,Snow,light snow,-16.0,-23.0,-16.0,-16.0,1012,85,9656.0,5.14,140,0.0,100,1732477071,1732484438
Rankin Inlet,-92.0832,62.8173,802,Clouds,scattered clouds,-19.82,-26.82,-19.82,-19.82,1030,71,10000.0,5.14,290,0.0,40,1732460009,1732481837
Arviat,-94.0585,61.1088,800,Clear,clear sky,-24.95,-31.95,-24.95,-24.95,1032,77,10000.0,6.17,330,0.0,0,1732459566,1732483229
Iqaluit,-68.5145,63.7506,803,Clouds,broken clouds,-5.17,-5.17,-5.17,-5.15,1009,85,10000.0,0.0,0,0.0,75,1732454919,1732475612
Yellowknife,-114.3525,62.456,600,Snow,light snow,-9.23,-16.23,-9.71,-9.21,1024,93,10000.0,5.14,180,0.0,75,1732465156,1732487382
Whitehorse,-135.0538,60.7161,802,Clouds,scattered clouds,-16.8,-23.8,-17.21,-15.5,1025,84,10000.0,10.8,180,0.0,40,1732469231,1732493246
Watson Lake,-128.7089,60.0635,800,Clear,clear sky,-30.05,-30.05,-30.05,-30.05,1034,69,10000.0,0.0,0,0.0,0,1732467403,1732492027
