city,lon,lat,weather_id,weather_main,weather_description,temp,feels_like,temp_min,temp_max,pressure,humidity,visibility,wind_speed,wind_deg,rain_1h,clouds_all,sunrise,sunset
Toronto,-79.4163,43.7001,800,Clear,clear sky,5.67,0.41,5.05,6.4,1009,76,10000.0,10.28,300,0.0,0,1732364568,1732398361
Vancouver,-123.1193,49.2497,520,Rain,light intensity shower rain,6.73,4.5,5.76,7.58,1007,88,10000.0,3.13,124,18.86,75,1732376168,1732407743
Montreal,-73.5878,45.5088,804,Clouds,overcast clouds,5.6,1.8,5.08,6.12,1000,76,10000.0,5.66,300,0.0,100,1732363499,1732396632
Calgary,-114.0853,51.0501,804,Clouds,overcast clouds,-10.67,-17.67,-11.34,-10.03,1019,85,10000.0,8.23,350,0.0,100,1732374418,1732405156
Edmonton,-113.4687,53.5501,601,Snow,snow,-11.74,-17.76,-12.31,-11.22,1022,87,298.0,3.13,44,0.0,100,1732374923,1732404354
Ottawa,-75.6981,45.4112,804,Clouds,overcast clouds,6.25,4.33,5.24,6.8,1002,85,10000.0,2.57,260,0.0,100,1732363988,1732397157
Winnipeg,-97.147,49.8844,804,Clouds,overcast clouds,-7.36,-11.97,-7.96,-7.01,1019,85,10000.0,2.68,74,0.0,100,1732370072,1732401370
Quebec City,-71.2145,46.8123,804,Clouds,overcast clouds,4.01,4.01,3.12,4.19,996,95,10000.0,1.03,200,0.0,100,1732363183,1732395809
Hamilton,-79.9496,43.2334,801,Clouds,few clouds,5.12,1.67,4.8,6.05,1011,80,10000.0,4.63,270,0.0,20,1732364614,1732398571
Kitchener,-80.5112,43.4254,803,Clouds,broken clouds,4.06,2.03,3.84,4.21,1011,91,10000.0,2.24,270,0.0,75,1732364783,1732398672
Halifax,-63.5724,44.6453,501,Rain,moderate rain,8.49,3.19,7.61,9.0,974,94,10000.0,15.43,220,2.37,100,1732360932,1732394390
Victoria,-123.3693,48.4329,500,Rain,light rain,8.92,6.88,7.98,9.47,1007,84,10000.0,3.6,100,0.34,75,1732376048,1732407983
Regina,-104.6178,50.4501,601,Snow,snow,-11.03,-18.03,-11.09,-10.94,1015,84,805.0,7.72,90,0.0,100,1732371999,1732403029
Saskatoon,-106.6345,52.1168,601,Snow,snow,-9.43,-16.43,-11.12,-9.35,1017,86,604.0,6.17,80,0.0,100,1732372896,1732403101
St. John's,-52.7093,47.5649,501,Rain,moderate rain,5.89,1.59,5.66,6.75,1002,96,3219.0,7.2,130,0.25,100,1732358890,1732391217
Niagara Falls,-79.0663,43.1001,804,Clouds,overcast clouds,7.4,3.08,6.54,8.38,1010,73,10000.0,8.75,280,0.0,100,1732364379,1732398382
Lethbridge,-112.8186,49.7,601,Snow,snow,-10.94,-17.94,-10.94,-9.73,1017,85,1609.0,7.2,320,0.0,100,1732373795,1732405171
Kelowna,-119.4857,49.8831,803,Clouds,broken clouds,6.74,6.74,6.49,6.74,1007,73,10000.0,1.03,120,0.0,75,1732375439,1732406728
Red Deer,-113.802,52.2668,804,Clouds,overcast clouds,-11.73,-18.73,-11.73,-11.51,1020,85,3621.0,4.63,350,0.0,100,1732374657,1732404781
Brandon,-99.9531,49.8469,804,Clouds,overcast clouds,-9.84,-16.84,-9.84,-9.84,1019,85,9656.0,4.63,100,0.0,100,1732370737,1732402051
Moncton,-64.8019,46.1159,310,Drizzle,light intensity drizzle rain,5.97,1.69,5.27,6.85,969,99,2012.0,7.2,330,0.7,100,1732361505,1732394408
Fredericton,-66.6656,45.9454,501,Rain,moderate rain,3.01,-2.66,3.01,3.47,980,90,10000.0,8.75,340,1.13,100,1732361920,1732394888
Abbotsford,-122.2526,49.058,501,Rain,moderate rain,8.38,8.38,7.14,9.12,1007,80,10000.0,0.15,293,2.13,97,1732375917,1732407578
Barrie,-79.6663,44.4001,804,Clouds,overcast clouds,3.91,-0.1,3.16,4.73,1009,90,10000.0,5.14,290,0.0,100,1732364754,1732398296
Sherbrooke,-71.8991,45.4001,701,Mist,mist,2.14,-1.0,2.1,4.11,997,98,8047.0,3.09,290,0.0,100,1732363073,1732396247
Sudbury,-80.99,46.49,804,Clouds,overcast clouds,2.81,0.56,1.54,2.81,1009,83,10000.0,2.24,315,0.0,100,1732365467,1732398218
Thunder Bay,-89.3168,48.4001,804,Clouds,overcast clouds,-1.05,-6.0,-1.05,-1.01,1016,64,10000.0,4.63,330,0.0,100,1732367861,1732399822
Saint John,-66.0677,45.2727,701,Mist,mist,2.57,-3.86,2.57,2.57,978,93,4828.0,10.8,340,1.33,100,1732361648,1732394872
Charlottetown,-63.1267,46.2352,501,Rain,moderate rain,7.97,3.26,7.33,8.29,976,95,6437.0,11.18,149,1.33,100,1732361126,1732393983
Whitehorse,-135.0538,60.7161,801,Clouds,few clouds,-18.64,-18.64,-18.72,-17.77,1035,84,10000.0,0.0,0,0.0,20,1732382686,1732406954
Yellowknife,-114.3525,62.456,600,Snow,light snow,-14.71,-14.71,-14.71,-14.71,1034,78,10000.0,0.0,0,0.0,75,1732378594,1732401108
Iqaluit,-68.5145,63.7506,701,Mist,mist,-3.5,-3.5,-3.5,-3.15,1013,92,1006.0,1.03,0,0.0,100,1732368339,1732389356
Kamloops,-120.3192,50.6665,803,Clouds,broken clouds,3.22,3.22,2.64,4.53,1007,89,10000.0,0.0,0,0.0,75,1732375823,1732406744
Nanaimo,-123.936,49.1663,803,Clouds,broken clouds,7.16,3.39,6.72,7.87,1006,91,10000.0,6.69,120,0.0,75,1732376345,1732407958
Chilliwack,-121.9443,49.1747,804,Clouds,overcast clouds,7.79,7.79,7.77,8.03,1008,90,10000.0,0.51,240,0.0,98,1732375869,1732407478
Prince George,-122.753,53.9166,600,Snow,light snow,-9.73,-16.73,-10.21,-9.31,1020,87,10000.0,6.17,340,0.0,100,1732377258,1732406477
Medicine Hat,-110.6683,50.0501,601,Snow,snow,-6.56,-10.88,-7.45,-5.94,1012,84,2414.0,2.57,320,0.0,100,1732373359,1732404574
Drummondville,-72.4824,45.8834,804,Clouds,overcast clouds,3.34,3.34,2.8,3.34,998,89,10000.0,0.45,272,0.0,100,1732363305,1732396295
Fort McMurray,-111.381,56.7268,600,Snow,light snow,-13.27,-13.27,-13.27,-13.23,1028,85,1207.0,1.03,0,0.0,100,1732375404,1732402872
Peterborough,-78.3162,44.3001,801,Clouds,few clouds,3.94,-0.52,3.63,3.97,1007,87,10000.0,6.17,290,0.0,20,1732364411,1732397990
Laval,-73.692,45.57,804,Clouds,overcast clouds,5.99,3.63,5.51,6.55,1000,77,10000.0,3.09,310,0.0,100,1732363536,1732396645
Gatineau,-75.7016,45.4772,804,Clouds,overcast clouds,6.31,4.4,5.38,6.94,1002,85,10000.0,2.57,250,0.0,100,1732364001,1732397145
Trois-Rivières,-72.5491,46.3501,804,Clouds,overcast clouds,4.4,0.77,3.59,4.97,998,78,10000.0,4.63,310,0.0,100,1732363412,1732396220
Brossard,-73.4658,45.4501,804,Clouds,overcast clouds,6.21,2.57,5.7,6.73,1000,75,10000.0,5.66,300,0.0,100,1732363459,1732396614
Richmond Hill,-79.4372,43.8711,804,Clouds,overcast clouds,5.01,1.12,4.65,6.27,1009,80,10000.0,5.51,299,0.0,100,1732364604,1732398336
Brampton,-79.7663,43.6834,802,Clouds,scattered clouds,4.88,1.37,4.43,5.97,1010,80,10000.0,4.63,290,0.0,40,1732364649,1732398448
Markham,-79.2663,43.8668,804,Clouds,overcast clouds,5.41,1.65,5.01,6.37,1009,80,10000.0,5.45,299,0.0,100,1732364562,1732398296
Mississauga,-79.6583,43.5789,802,Clouds,scattered clouds,5.51,2.15,5.08,6.43,1010,78,10000.0,4.63,290,0.0,40,1732364605,1732398441
Oakville,-79.6829,43.4501,804,Clouds,overcast clouds,5.82,3.43,5.55,6.92,1010,77,10000.0,3.09,270,0.0,97,1732364588,1732398469
Burlington,-79.8371,43.3862,804,Clouds,overcast clouds,5.74,3.33,5.13,6.44,1010,78,10000.0,3.09,270,0.0,95,1732364614,1732398517
St. Catharines,-79.2496,43.1668,803,Clouds,broken clouds,7.76,2.84,6.46,8.47,1010,71,10000.0,11.83,280,0.0,75,1732364435,1732398414
Oshawa,-78.8496,43.9001,801,Clouds,few clouds,5.23,1.56,5.23,5.67,1008,87,10000.0,5.14,290,0.0,20,1732364468,1732398190
Whitby,-78.9329,43.8834,801,Clouds,few clouds,5.56,1.97,4.66,5.75,1009,84,10000.0,5.14,290,0.0,20,1732364485,1732398213
Guelph,-80.2497,43.5501,803,Clouds,broken clouds,3.93,-0.53,3.0,4.27,1010,82,10000.0,6.17,300,0.0,75,1732364742,1732398587
Kingston,-76.481,44.2298,804,Clouds,overcast clouds,6.11,2.44,6.11,6.73,1004,87,10000.0,5.66,260,0.0,100,1732363958,1732397562
Waterloo,-80.5164,43.4668,803,Clouds,broken clouds,4.12,2.1,3.64,4.27,1011,91,10000.0,2.24,270,0.0,75,1732364791,1732398666
Newmarket,-79.4663,44.0501,804,Clouds,overcast clouds,4.49,-0.14,3.63,4.49,1009,85,10000.0,6.99,301,0.0,100,1732364642,1732398311
Aurora,-79.4663,44.0001,804,Clouds,overcast clouds,4.28,-0.28,3.52,5.04,1009,84,10000.0,6.64,302,0.0,100,1732364634,1732398320
Pickering,-79.1329,43.9001,801,Clouds,few clouds,4.44,0.57,3.93,5.29,1009,83,10000.0,5.14,290,0.0,20,1732364536,1732398258
Milton,-64.7488,44.0669,500,Rain,light rain,6.5,4.25,5.83,6.86,975,94,358.0,3.09,270,0.22,100,1732361110,1732394777
Thunder Bay,-89.3168,48.4001,804,Clouds,overcast clouds,-1.05,-6.0,-1.05,-1.01,1016,64,10000.0,4.63,330,0.0,100,1732367861,1732399822
Welland,-79.2496,42.9834,804,Clouds,overcast clouds,6.84,3.06,6.64,7.99,1010,78,10000.0,6.48,289,0.0,100,1732364403,1732398446
Sault Ste. Marie,-84.3333,46.5168,804,Clouds,overcast clouds,3.16,-2.63,2.9,3.16,1012,87,10000.0,9.26,280,0.0,100,1732366276,1732399014
North Bay,-79.4663,46.3168,804,Clouds,overcast clouds,2.01,-2.2,2.01,2.75,1007,100,10000.0,4.63,300,0.0,100,1732365067,1732397886
Belleville,-77.3705,44.1788,803,Clouds,broken clouds,6.06,1.64,5.56,6.96,1006,75,10000.0,7.72,290,0.0,75,1732364162,1732397785
Timmins,-81.3331,48.4669,600,Snow,light snow,-1.1,-6.06,-1.1,-1.1,1009,100,10000.0,4.63,310,0.0,100,1732365957,1732397892
Cornwall,-74.7281,45.0181,804,Clouds,overcast clouds,6.06,3.39,6.06,6.06,1002,75,10000.0,3.6,260,0.0,100,1732363681,1732396998
Orillia,-79.4207,44.6087,501,Rain,moderate rain,3.48,-0.63,3.27,3.94,1008,95,10000.0,5.14,290,1.07,100,1732364733,1732398199
Midland,-79.883,44.7501,804,Clouds,overcast clouds,3.89,-1.66,3.89,3.89,1009,77,10000.0,9.24,309,0.0,100,1732364870,1732398284
Collingwood,-80.2164,44.4834,804,Clouds,overcast clouds,3.94,-1.29,3.94,3.94,1009,90,7882.0,8.25,298,0.0,100,1732364901,1732398413
Stratford,-80.9497,43.3668,804,Clouds,overcast clouds,3.31,3.31,3.31,3.4,1012,93,10000.0,0.89,274,0.0,93,1732364878,1732398788
Woodstock,-80.7497,43.1334,804,Clouds,overcast clouds,3.96,1.91,3.73,3.96,1012,94,10000.0,2.24,264,0.0,100,1732364789,1732398780
Cambridge,-80.3127,43.3601,803,Clouds,broken clouds,4.19,-0.28,4.18,4.5,1011,84,10000.0,6.35,296,0.0,75,1732364724,1732398636
Brantford,-80.2664,43.1334,804,Clouds,overcast clouds,5.24,1.41,5.24,5.24,1011,74,10000.0,5.51,291,0.0,94,1732364673,1732398664
Chatham,-65.432,47.0334,804,Clouds,overcast clouds,2.22,-4.41,2.22,2.22,977,94,8569.0,11.13,4,0.0,100,1732361838,1732394377
Leamington,-82.6062,42.0549,804,Clouds,overcast clouds,6.71,5.57,6.04,6.71,1014,30,10000.0,1.79,298,0.0,100,1732365052,1732399409
Niagara-on-the-Lake,-79.0663,43.2501,803,Clouds,broken clouds,7.77,2.86,7.25,8.61,1010,73,10000.0,11.83,280,0.0,75,1732364405,1732398356
Port Colborne,-79.2329,42.9001,804,Clouds,overcast clouds,6.64,2.18,4.92,7.17,1011,84,10000.0,8.43,293,0.0,100,1732364385,1732398456
Grimsby,-79.5663,43.2001,804,Clouds,overcast clouds,6.35,6.35,5.29,6.92,1010,84,10000.0,0.45,170,0.0,91,1732364517,1732398485
Thorold,-79.1996,43.1168,803,Clouds,broken clouds,7.26,2.17,6.72,8.08,1010,72,10000.0,11.83,280,0.0,75,1732364414,1732398411
St. Thomas,-81.1804,42.7736,804,Clouds,overcast clouds,5.27,1.1,5.14,6.24,1012,86,10000.0,6.35,295,0.0,100,1732364831,1732398945
Owen Sound,-80.9435,44.5672,804,Clouds,overcast clouds,4.48,4.48,4.38,5.21,1010,89,10000.0,0.89,262,0.0,100,1732365091,1732398572
Wasaga Beach,-80.0164,44.5168,804,Clouds,overcast clouds,4.89,-0.3,4.89,4.89,1009,73,10000.0,9.08,304,0.0,100,1732364859,1732398358
Haliburton,-78.5076,45.0459,804,Clouds,overcast clouds,1.9,-2.37,1.9,1.9,1007,85,10000.0,4.7,293,0.0,100,1732364594,1732397899
Pembroke,-77.1162,45.8168,804,Clouds,overcast clouds,3.43,-0.63,3.43,3.43,1004,85,10000.0,5.0,297,0.0,100,1732364406,1732397420
Renfrew,-76.6827,45.4668,804,Clouds,overcast clouds,3.15,-1.64,3.15,3.15,1004,93,2587.0,6.44,298,0.0,99,1732364235,1732397382
Smiths Falls,-76.0161,44.9001,804,Clouds,overcast clouds,5.66,2.32,5.66,5.66,1003,90,10000.0,4.67,282,0.0,86,1732363968,1732397328
Arnprior,-76.3494,45.4334,804,Clouds,overcast clouds,6.99,3.25,6.45,6.99,1003,96,,6.48,294,0.0,94,1732364148,1732397309
Brockville,-75.6826,44.5834,804,Clouds,overcast clouds,5.42,4.64,5.14,6.08,1003,89,10000.0,1.34,224,0.0,98,1732363830,1732397307
Prescott,-75.516,44.7168,701,Mist,mist,5.87,4.32,5.04,5.98,1003,87,9656.0,2.06,230,0.0,100,1732363815,1732397242
Gananoque,-76.1661,44.3334,804,Clouds,overcast clouds,6.39,2.64,6.08,6.62,1004,87,10000.0,6.06,282,0.0,98,1732363901,1732397468
Carleton Place,-76.1494,45.1334,804,Clouds,overcast clouds,6.3,3.98,5.42,6.61,1003,94,6639.0,3.13,310,0.0,88,1732364044,1732397317
Almonte,-76.1958,45.2299,500,Rain,light rain,6.46,4.17,5.5,6.7,1003,93,1768.0,3.13,310,0.15,87,1732364073,1732397310
Perth,-76.2494,44.9001,804,Clouds,overcast clouds,5.59,2.2,5.48,5.59,1003,91,7188.0,4.73,290,0.0,93,1732364024,1732397384
Huntsville,-79.2163,45.3334,804,Clouds,overcast clouds,1.85,-2.08,1.85,1.85,1008,96,10000.0,4.11,298,0.0,100,1732364818,1732398015
Parry Sound,-80.033,45.3501,804,Clouds,overcast clouds,4.03,0.68,4.03,4.03,1009,81,10000.0,3.98,318,0.0,100,1732365017,1732398208
Gravenhurst,-79.3663,44.9168,804,Clouds,overcast clouds,4.1,1.36,3.08,4.1,1008,87,10000.0,3.09,320,0.0,100,1732364776,1732398129
Bracebridge,-79.3163,45.0334,804,Clouds,overcast clouds,4.27,0.36,4.27,4.27,1008,81,10000.0,5.14,320,0.0,100,1732364786,1732398095
Haliburton,-78.5076,45.0459,804,Clouds,overcast clouds,1.9,-2.37,1.9,1.9,1007,85,10000.0,4.7,293,0.0,100,1732364594,1732397899
Barrie,-79.6663,44.4001,804,Clouds,overcast clouds,3.91,-0.1,3.16,4.73,1009,90,10000.0,5.14,290,0.0,100,1732364754,1732398296
Orillia,-79.4207,44.6087,501,Rain,moderate rain,3.48,-0.63,3.27,3.94,1008,95,10000.0,5.14,290,1.07,100,1732364733,1732398199
Kawartha Lakes,-78.8329,44.5834,804,Clouds,overcast clouds,2.81,-1.01,2.81,2.81,1008,83,10000.0,4.29,308,0.0,100,1732364587,1732398062
Lindsay,-78.7329,44.3501,804,Clouds,overcast clouds,3.2,-1.08,3.2,3.2,1008,98,10000.0,5.33,310,0.0,100,1732364520,1732398081
Cobourg,-78.1652,43.9598,804,Clouds,overcast clouds,5.99,3.31,4.39,5.99,1008,75,10000.0,3.6,310,0.0,94,1732364314,1732398015
Port Hope,-78.293,43.9512,804,Clouds,overcast clouds,5.88,3.17,5.88,5.88,1008,75,10000.0,3.6,310,0.0,95,1732364343,1732398047
Bowmanville,-78.6829,43.9168,500,Rain,light rain,5.31,1.66,5.31,5.75,1008,87,10000.0,5.14,290,0.19,20,1732364430,1732398147
Uxbridge,-79.1163,44.1001,804,Clouds,overcast clouds,3.49,-1.58,3.48,4.57,1009,81,10000.0,7.42,301,0.0,100,1732364567,1732398218
Newmarket,-79.4663,44.0501,804,Clouds,overcast clouds,4.49,-0.14,3.63,4.49,1009,85,10000.0,6.99,301,0.0,100,1732364642,1732398311
Aurora,-79.4663,44.0001,804,Clouds,overcast clouds,4.28,-0.28,3.52,5.04,1009,84,10000.0,6.64,302,0.0,100,1732364634,1732398320
Richmond Hill,-79.4372,43.8711,804,Clouds,overcast clouds,5.01,1.12,4.65,6.27,1009,80,10000.0,5.51,299,0.0,100,1732364604,1732398336
Markham,-79.2663,43.8668,804,Clouds,overcast clouds,5.41,1.65,5.01,6.37,1009,80,10000.0,5.45,299,0.0,100,1732364562,1732398296
Vaughan,-79.4983,43.8361,804,Clouds,overcast clouds,5.04,3.18,4.7,6.06,1009,79,10000.0,2.24,278,0.0,100,1732364612,1732398357
Brampton,-79.7663,43.6834,802,Clouds,scattered clouds,4.88,1.37,4.43,5.97,1010,80,10000.0,4.63,290,0.0,40,1732364649,1732398448
Mississauga,-79.6583,43.5789,802,Clouds,scattered clouds,5.51,2.15,5.08,6.43,1010,78,10000.0,4.63,290,0.0,40,1732364605,1732398441
Etobicoke,-79.5671,43.6542,802,Clouds,scattered clouds,5.63,0.48,5.18,6.53,1010,77,10000.0,9.77,290,0.0,40,1732364596,1732398405
North York,-79.4163,43.7668,800,Clear,clear sky,5.46,0.13,4.97,6.33,1009,77,10000.0,10.28,300,0.0,0,1732364580,1732398349
Scarborough,-79.2578,43.7731,800,Clear,clear sky,5.64,0.5,5.01,6.62,1009,75,10000.0,9.77,290,0.0,0,1732364543,1732398310
Whitby,-78.9329,43.8834,801,Clouds,few clouds,5.56,1.97,4.66,5.75,1009,84,10000.0,5.14,290,0.0,20,1732364485,1732398213
Oshawa,-78.8496,43.9001,801,Clouds,few clouds,5.23,1.56,5.23,5.67,1008,87,10000.0,5.14,290,0.0,20,1732364468,1732398190
Courtice,-78.7785,43.9122,801,Clouds,few clouds,5.01,1.28,5.01,5.44,1008,87,10000.0,5.14,290,0.0,20,1732364453,1732398170
Port Perry,-78.9444,44.1068,500,Rain,light rain,4.46,-0.21,3.62,4.71,1008,87,10000.0,7.07,302,0.69,100,1732364527,1732398175
Uxbridge,-79.1163,44.1001,804,Clouds,overcast clouds,3.49,-1.58,3.48,4.57,1009,81,10000.0,7.42,301,0.0,100,1732364567,1732398218
Brock,-108.718,51.4412,601,Snow,snow,-10.52,-17.52,-10.52,-10.52,1014,95,118.0,7.56,80,0.0,100,1732373225,1732403772
Ajax,-79.0329,43.8501,801,Clouds,few clouds,5.45,1.83,4.6,5.96,1009,84,10000.0,5.14,290,0.0,20,1732364503,1732398243
Pickering,-79.1329,43.9001,801,Clouds,few clouds,4.44,0.57,3.93,5.29,1009,83,10000.0,5.14,290,0.0,20,1732364536,1732398258
Milton,-64.7488,44.0669,500,Rain,light rain,6.5,4.25,5.83,6.86,975,94,358.0,3.09,270,0.22,100,1732361110,1732394777
Georgetown,-62.532,46.1834,804,Clouds,overcast clouds,8.1,3.24,8.1,8.1,979,73,10000.0,12.16,150,0.0,100,1732360973,1732393850
Acton,-80.0415,43.6297,804,Clouds,overcast clouds,3.67,-0.9,3.58,4.1,1010,75,10000.0,6.26,347,0.0,99,1732364706,1732398524
Caledon,-79.8583,43.8754,804,Clouds,overcast clouds,4.46,0.23,4.25,4.46,1010,86,10000.0,5.95,299,0.0,98,1732364705,1732398436
Orangeville,-80.0997,43.9168,804,Clouds,overcast clouds,2.73,-1.97,2.73,3.01,1010,93,3179.0,5.96,294,0.0,100,1732364771,1732398487
Shelburne,-80.2041,44.0787,500,Rain,light rain,2.2,-2.54,1.87,2.72,1010,94,,5.75,294,0.93,99,1732364825,1732398483
Alliston,-79.8663,44.1501,804,Clouds,overcast clouds,4.38,1.34,3.63,4.48,1009,85,10000.0,3.6,280,0.0,100,1732364756,1732398389
Bradford,-79.5663,44.1168,804,Clouds,overcast clouds,4.47,-0.2,3.72,4.58,1009,84,10000.0,7.08,301,0.0,100,1732364678,1732398323
Innisfil,-79.6496,44.3001,804,Clouds,overcast clouds,4.06,0.95,3.2,4.77,1009,88,10000.0,3.6,280,0.0,100,1732364731,1732398310
Beeton,-79.7844,44.079,804,Clouds,overcast clouds,4.28,1.22,4.08,4.58,1009,84,10000.0,3.6,280,0.0,100,1732364724,1732398382
Cookstown,-79.7017,44.1898,804,Clouds,overcast clouds,3.97,0.84,3.32,4.72,1009,83,10000.0,3.6,280,0.0,100,1732364724,1732398342
Tottenham,-79.8163,44.0168,804,Clouds,overcast clouds,4.12,-0.1,3.85,4.35,1009,87,10000.0,5.71,301,0.0,100,1732364721,1732398401
Keswick,-79.4663,44.2501,804,Clouds,overcast clouds,4.65,-0.13,3.32,4.9,1009,89,10000.0,7.56,300,0.0,100,1732364678,1732398275
Pefferlaw,-79.1996,44.3168,804,Clouds,overcast clouds,3.94,-1.18,3.94,4.94,1009,83,10000.0,7.92,305,0.0,100,1732364626,1732398199
Sutton,-72.6158,45.1001,804,Clouds,overcast clouds,3.99,2.13,3.61,4.47,999,87,8817.0,2.06,320,0.0,100,1732363189,1732396476
Mount Albert,-79.3091,44.1372,804,Clouds,overcast clouds,3.54,-1.52,3.54,4.41,1009,81,10000.0,7.42,301,0.0,100,1732364620,1732398257
Stouffville,-79.2496,43.9668,804,Clouds,overcast clouds,3.67,3.67,3.51,5.03,1009,82,10000.0,0.45,248,0.0,100,1732364576,1732398274
Ballantrae,-79.2972,44.0379,804,Clouds,overcast clouds,3.07,3.07,3.07,3.93,1009,81,10000.0,0.45,248,0.0,100,1732364600,1732398272
Uxbridge,-79.1163,44.1001,804,Clouds,overcast clouds,3.49,-1.58,3.48,4.57,1009,81,10000.0,7.42,301,0.0,100,1732364567,1732398218
Goodwood,-63.6732,44.6047,501,Rain,moderate rain,7.91,2.39,7.24,8.27,974,94,8894.0,15.43,220,2.11,100,1732360949,1732394422
Port Perry,-78.9444,44.1068,500,Rain,light rain,4.46,-0.21,3.62,4.71,1008,87,10000.0,7.07,302,0.69,100,1732364527,1732398175
Beaverton,-79.1496,44.4334,804,Clouds,overcast clouds,3.92,0.18,3.92,3.92,1008,93,10000.0,4.63,310,0.0,100,1732364636,1732398166
Sunderland,-79.0662,44.2634,804,Clouds,overcast clouds,4.02,-0.94,4.02,4.02,1008,86,10000.0,7.54,304,0.0,100,1732364585,1732398176
Cannington,-79.0329,44.3501,804,Clouds,overcast clouds,3.76,-0.89,3.76,3.76,1008,89,10000.0,6.5,307,0.0,100,1732364592,1732398153
Lindsay,-78.7329,44.3501,804,Clouds,overcast clouds,3.2,-1.08,3.2,3.2,1008,98,10000.0,5.33,310,0.0,100,1732364520,1732398081
Bobcaygeon,-78.542,44.5462,804,Clouds,overcast clouds,2.87,-1.36,2.87,2.87,1008,79,10000.0,5.07,306,0.0,100,1732364510,1732397999
Fenelon Falls,-78.7496,44.5334,804,Clouds,overcast clouds,2.97,-1.22,2.97,2.97,1008,80,10000.0,5.04,309,0.0,100,1732364558,1732398052
Omemee,-78.5599,44.299,801,Clouds,few clouds,3.27,-1.37,3.27,3.6,1008,98,10000.0,6.17,290,0.0,20,1732364470,1732398049
Norland,-78.8114,44.727,804,Clouds,overcast clouds,2.87,-1.12,2.87,2.87,1008,80,10000.0,4.62,306,0.0,100,1732364608,1732398031
Coboconk,-78.7996,44.6501,804,Clouds,overcast clouds,2.78,-1.18,2.78,2.78,1008,80,10000.0,4.52,307,0.0,100,1732364591,1732398042
Kirkfield,-78.9816,44.5654,804,Clouds,overcast clouds,3.7,-0.1,3.7,3.7,1008,93,10000.0,4.63,310,0.0,100,1732364619,1732398101
Kinmount,-78.6496,44.7834,804,Clouds,overcast clouds,2.53,-1.49,2.53,2.53,1008,82,10000.0,4.53,300,0.0,100,1732364580,1732397982
Haliburton,-78.5076,45.0459,804,Clouds,overcast clouds,1.9,-2.37,1.9,1.9,1007,85,10000.0,4.7,293,0.0,100,1732364594,1732397899
Minden,-78.7249,44.9254,804,Clouds,overcast clouds,2.23,-1.82,2.23,2.23,1008,84,10000.0,4.45,297,0.0,100,1732364624,1732397974
Gooderham,-78.3829,44.9001,804,Clouds,overcast clouds,1.85,-2.4,1.85,1.85,1007,83,10000.0,4.63,293,0.0,100,1732364537,1732397896
Wilberforce,-78.2162,45.0334,804,Clouds,overcast clouds,2.64,-1.54,2.64,2.64,1007,83,10000.0,4.86,292,0.0,100,1732364522,1732397831
Bancroft,-77.857,45.0575,804,Clouds,overcast clouds,2.97,0.0,2.92,2.97,1006,87,10000.0,3.09,300,0.0,100,1732364440,1732397741
Maynooth,-77.941,45.2296,804,Clouds,overcast clouds,2.29,-0.82,2.29,2.29,1006,87,10000.0,3.09,300,0.0,100,1732364492,1732397729
Barry's Bay,-77.6792,45.4883,804,Clouds,overcast clouds,2.18,-2.01,2.18,2.18,1005,85,8605.0,4.68,301,0.0,100,1732364478,1732397617
Eganville,-77.0994,45.5334,804,Clouds,overcast clouds,2.83,-1.29,2.83,2.83,1005,88,10000.0,4.83,299,0.0,100,1732364347,1732397470
Killaloe,-77.4153,45.5542,804,Clouds,overcast clouds,2.87,-1.19,2.87,2.87,1005,86,10000.0,4.75,299,0.0,100,1732364427,1732397541
Petawawa,-77.3328,45.9001,804,Clouds,overcast clouds,3.21,1.53,3.21,3.21,1005,85,10000.0,1.79,328,0.0,100,1732364474,1732397455
Deep River,-77.4995,46.1001,804,Clouds,overcast clouds,3.19,0.23,3.19,3.3,1005,89,10000.0,3.13,294,0.0,100,1732364552,1732397457
Chalk River,-77.4495,46.0168,804,Clouds,overcast clouds,3.21,-1.03,3.1,3.21,1005,85,10000.0,5.25,300,0.0,100,1732364524,1732397461
North Bay,-79.4663,46.3168,804,Clouds,overcast clouds,2.01,-2.2,2.01,2.75,1007,100,10000.0,4.63,300,0.0,100,1732365067,1732397886
Mattawa,-78.6996,46.3168,804,Clouds,overcast clouds,1.45,-2.77,1.45,1.45,1007,91,10000.0,4.43,297,0.0,99,1732364883,1732397702
Powassan,-79.3496,46.0334,804,Clouds,overcast clouds,2.22,-1.93,2.22,2.22,1008,83,10000.0,4.62,294,0.0,100,1732364984,1732397913
Sundridge,-79.3996,45.7668,804,Clouds,overcast clouds,1.13,-3.07,1.13,1.13,1008,83,10000.0,4.27,296,0.0,100,1732364944,1732397977
Burk's Falls,-79.3997,45.6168,804,Clouds,overcast clouds,1.98,-2.05,1.98,1.98,1008,83,10000.0,4.32,298,0.0,100,1732364916,1732398006
Magnetawan,-79.6439,45.6652,804,Clouds,overcast clouds,2.16,-1.8,2.16,2.16,1008,76,10000.0,4.27,303,0.0,100,1732364984,1732398055
Parry Sound,-80.033,45.3501,804,Clouds,overcast clouds,4.03,0.68,4.03,4.03,1009,81,10000.0,3.98,318,0.0,100,1732365017,1732398208
McKellar,-79.9193,45.508,804,Clouds,overcast clouds,3.6,0.59,3.6,3.6,1009,77,10000.0,3.31,307,0.0,100,1732365020,1732398151
Nobel,-80.0997,45.4168,804,Clouds,overcast clouds,3.9,0.53,3.9,3.9,1009,81,10000.0,3.96,317,0.0,100,1732365046,1732398211
Dunchurch,-79.8545,45.6456,804,Clouds,overcast clouds,2.5,-1.04,2.5,2.5,1008,76,10000.0,3.73,303,0.0,100,1732365031,1732398109
Port Loring,-79.983,45.9168,804,Clouds,overcast clouds,2.63,-0.54,2.63,2.63,1008,77,10000.0,3.26,298,0.0,100,1732365113,1732398088
Temagami,-79.7896,47.0626,804,Clouds,overcast clouds,0.14,-4.44,0.14,0.14,1008,89,7683.0,4.5,310,0.0,100,1732365293,1732397815
Cobalt,-79.683,47.4002,600,Snow,light snow,-0.34,-5.31,-0.34,-0.34,1007,95,,4.95,301,0.0,100,1732365336,1732397721
Haileybury,-79.6373,47.449,600,Snow,light snow,0.23,-4.72,0.23,0.23,1007,95,50.0,5.16,300,0.0,100,1732365335,1732397700
New Liskeard,-79.7153,47.4938,600,Snow,light snow,-0.11,-5.12,-0.11,-0.11,1007,94,309.0,5.11,299,0.0,100,1732365363,1732397709
Kirkland Lake,-80.0377,48.1446,600,Snow,light snow,0.16,-4.17,0.16,0.16,1007,93,261.0,4.12,310,0.0,100,1732365577,1732397651
Englehart,-79.8664,47.8169,600,Snow,light snow,0.31,-4.61,0.31,0.31,1007,93,9656.0,5.14,310,0.0,100,1732365467,1732397679
Matheson,-80.4665,48.5335,600,Snow,light snow,-1.26,-6.51,-1.26,-1.26,1008,96,191.0,5.03,305,0.0,100,1732365763,1732397670
Iroquois Falls,-80.6831,48.7669,600,Snow,light snow,-1.36,-6.48,-1.36,-1.36,1008,95,214.0,4.77,306,0.0,100,1732365866,1732397671
Cochrane,-114.4687,51.1834,804,Clouds,overcast clouds,-11.11,-18.11,-11.96,-10.44,1019,70,10000.0,6.69,350,0.0,100,1732374543,1732405215
Kapuskasing,-82.4331,49.4169,804,Clouds,overcast clouds,-2.0,-8.08,-2.0,-1.95,1010,100,10000.0,6.17,320,0.0,100,1732366431,1732397947
Hearst,-83.6665,49.6835,804,Clouds,overcast clouds,-2.28,-6.92,-2.28,-2.28,1011,86,6768.0,3.79,309,0.0,100,1732366787,1732398183
Moosonee,-80.6345,51.2793,601,Snow,snow,-2.0,-6.83,-2.0,-1.99,1006,93,2816.0,4.12,290,0.0,100,1732366437,1732397077
Fort Albany,-81.6825,52.213,600,Snow,light snow,-1.82,-8.28,-1.82,-1.82,1006,94,249.0,7.06,301,0.0,100,1732366925,1732397092
Kashechewan,-81.6166,52.3,600,Snow,light snow,-1.66,-8.43,-1.66,-1.66,1006,94,243.0,7.87,302,0.0,100,1732366932,1732397053
Timmins,-81.3331,48.4669,600,Snow,light snow,-1.1,-6.06,-1.1,-1.1,1009,100,10000.0,4.63,310,0.0,100,1732365957,1732397892
Foleyet,-82.4473,48.2419,804,Clouds,overcast clouds,-1.66,-6.27,-1.66,-1.66,1011,87,8253.0,3.93,307,0.0,100,1732366177,1732398208
Chapleau,-83.4034,47.8405,803,Clouds,broken clouds,-0.95,-3.64,-0.95,-0.95,1011,93,10000.0,2.06,310,0.0,75,1732366321,1732398522
Wawa,-84.7832,47.9834,802,Clouds,scattered clouds,-0.04,-1.86,-0.04,-0.04,1012,74,10000.0,1.54,10,0.0,40,1732366683,1732398823
White River,-85.272,48.5922,804,Clouds,overcast clouds,-2.52,-6.84,-2.52,-2.52,1013,79,10000.0,3.34,320,0.0,100,1732366930,1732398810
Marathon,-86.4332,48.7501,804,Clouds,overcast clouds,0.35,-1.42,0.35,0.35,1013,74,10000.0,1.54,340,0.0,99,1732367244,1732399054
Manitouwadge,-85.8403,49.1215,804,Clouds,overcast clouds,-2.25,-6.06,-2.25,-2.25,1013,76,10000.0,2.85,313,0.0,99,1732367183,1732398830
Terrace Bay,-87.1,48.7834,803,Clouds,broken clouds,-1.42,-6.47,-1.42,-1.42,1014,75,10000.0,4.64,318,0.0,74,1732367411,1732399207
Schreiber,-87.2646,48.8125,803,Clouds,broken clouds,-1.69,-7.03,-1.69,-1.69,1014,76,10000.0,5.0,317,0.0,80,1732367457,1732399240
Nipigon,-88.2667,49.0168,804,Clouds,overcast clouds,-1.07,-3.78,-1.07,-1.07,1015,64,10000.0,2.06,320,0.0,86,1732367743,1732399436
Red Rock,-88.2591,48.9426,803,Clouds,broken clouds,-0.81,-5.56,-0.81,-0.81,1015,64,10000.0,4.41,320,0.0,84,1732367725,1732399450
Thunder Bay,-89.3168,48.4001,804,Clouds,overcast clouds,-1.05,-6.0,-1.05,-1.01,1016,64,10000.0,4.63,330,0.0,100,1732367861,1732399822
Fort William,-52.7147,47.5721,502,Rain,heavy intensity rain,5.8,1.47,5.6,6.69,1002,96,3219.0,7.2,130,4.27,100,1732358893,1732391217
Nipigon,-88.2667,49.0168,804,Clouds,overcast clouds,-1.07,-3.78,-1.07,-1.07,1015,64,10000.0,2.06,320,0.0,86,1732367743,1732399436
Atikokan,-91.6216,48.7555,803,Clouds,broken clouds,-3.04,-5.94,-3.04,-3.04,1017,64,10000.0,1.96,333,0.0,66,1732368491,1732400298
Dryden,-92.7503,49.7833,804,Clouds,overcast clouds,-5.84,-9.35,-5.84,-5.84,1017,86,10000.0,2.06,360,0.0,100,1732368992,1732400338
Sioux Lookout,-91.917,50.1001,804,Clouds,overcast clouds,-4.96,-10.86,-4.96,-4.96,1018,80,10000.0,4.63,350,0.0,100,1732368865,1732400065
Kenora,-94.4337,49.8167,804,Clouds,overcast clouds,-5.46,-9.58,-5.68,-5.46,1018,79,10000.0,2.57,20,0.0,100,1732369405,1732400735
Fort Frances,-93.4003,48.5999,804,Clouds,overcast clouds,-4.16,-8.03,-4.41,-3.8,1017,80,10000.0,2.57,320,0.0,100,1732368885,1732400758
Rainy River,-94.5671,48.7166,804,Clouds,overcast clouds,-3.55,-5.6,-3.55,-3.55,1017,73,10000.0,1.39,21,0.0,94,1732369191,1732401013
Emo,-93.8357,48.6323,803,Clouds,broken clouds,-3.81,-6.54,-3.81,-3.81,1017,81,10000.0,1.76,353,0.0,73,1732368996,1732400856
Ear Falls,-93.2353,50.6395,804,Clouds,overcast clouds,-5.06,-9.67,-5.06,-5.06,1018,80,10000.0,3.09,310,0.0,90,1732369309,1732400254
Red Lake,-93.8337,51.0168,803,Clouds,broken clouds,-5.96,-10.75,-5.96,-5.96,1018,86,10000.0,3.09,330,0.0,75,1732369544,1732400307
Pickle Lake,-90.1625,51.479,804,Clouds,overcast clouds,-6.86,-12.81,-6.86,-6.86,1016,86,10000.0,4.12,310,0.0,100,1732368776,1732399312
Ignace,-91.659,49.4163,803,Clouds,broken clouds,-3.69,-7.35,-3.69,-3.69,1017,66,10000.0,2.46,328,0.0,69,1732368647,1732400160
Geraldton,-86.9484,49.7267,804,Clouds,overcast clouds,-3.0,-7.86,-3.0,-3.0,1014,72,10000.0,3.86,321,0.0,100,1732367586,1732398960
Longlac,-86.5396,49.7782,804,Clouds,overcast clouds,-2.77,-7.42,-2.77,-2.77,1013,74,10000.0,3.66,326,0.0,100,1732367499,1732398850
Nakina,-86.7107,50.1789,804,Clouds,overcast clouds,-3.57,-8.43,-3.57,-3.57,1014,70,10000.0,3.7,318,0.0,96,1732367633,1732398798
Hornepayne,-84.7705,49.2138,804,Clouds,overcast clouds,-3.26,-7.66,-3.26,-3.26,1012,83,10000.0,3.26,321,0.0,91,1732366947,1732398553
Hearst,-83.6665,49.6835,804,Clouds,overcast clouds,-2.28,-6.92,-2.28,-2.28,1011,86,6768.0,3.79,309,0.0,100,1732366787,1732398183
Smooth Rock Falls,-81.6331,49.2835,600,Snow,light snow,-1.54,-6.33,-1.54,-1.54,1009,96,,4.21,298,0.0,100,1732366208,1732397785
Kapuskasing,-82.4331,49.4169,804,Clouds,overcast clouds,-2.0,-8.08,-2.0,-1.95,1010,100,10000.0,6.17,320,0.0,100,1732366431,1732397947
Opasatika,-82.8665,49.5335,804,Clouds,overcast clouds,-2.38,-7.16,-2.38,-2.38,1011,91,7226.0,3.94,306,0.0,100,1732366561,1732398025
Missanabie,-84.0831,48.3168,804,Clouds,overcast clouds,-1.0,-4.53,-1.0,-1.0,1012,78,10000.0,2.82,321,0.0,100,1732366586,1732398584
Dubreuilville,-84.551,48.3491,804,Clouds,overcast clouds,-1.18,-4.38,-1.18,-1.18,1012,87,2202.0,2.46,314,0.0,100,1732366705,1732398690
Chapleau,-83.4034,47.8405,803,Clouds,broken clouds,-0.95,-3.64,-0.95,-0.95,1011,93,10000.0,2.06,310,0.0,75,1732366321,1732398522
Sudbury,-80.99,46.49,804,Clouds,overcast clouds,2.81,0.14,1.54,2.81,1009,85,10000.0,2.68,275,0.0,100,1732365467,1732398218
Val Caron,-81.0074,46.6103,804,Clouds,overcast clouds,1.4,-2.96,1.4,2.68,1009,86,10000.0,4.63,320,0.0,100,1732365495,1732398198
Hanmer,-80.9448,46.6531,804,Clouds,overcast clouds,1.33,-3.04,1.33,2.6,1009,86,10000.0,4.63,320,0.0,100,1732365489,1732398174
Capreol,-80.9225,46.706,804,Clouds,overcast clouds,1.26,-3.13,1.26,2.53,1009,86,10000.0,4.63,320,0.0,100,1732365494,1732398159
Chelmsford,-81.1998,46.5834,804,Clouds,overcast clouds,2.8,-0.95,2.8,2.8,1009,75,10000.0,4.18,323,0.0,100,1732365536,1732398249
Azilda,-81.1148,46.5521,804,Clouds,overcast clouds,2.76,-1.08,1.49,2.76,1009,85,10000.0,4.3,321,0.0,100,1732365509,1732398235
Garson,-80.8641,46.5559,804,Clouds,overcast clouds,1.39,-2.97,1.39,2.66,1009,86,10000.0,4.63,320,0.0,100,1732365450,1732398174
Lively,-81.1498,46.4334,804,Clouds,overcast clouds,2.79,-0.83,2.79,2.79,1009,85,10000.0,3.96,321,0.0,100,1732365494,1732398267
Copper Cliff,-81.0664,46.4668,804,Clouds,overcast clouds,2.81,-0.92,1.53,2.81,1009,85,10000.0,4.14,320,0.0,100,1732365481,1732398241
Dowling,-81.3342,46.5865,804,Clouds,overcast clouds,1.31,-2.65,1.31,1.31,1009,76,10000.0,3.97,326,0.0,100,1732365569,1732398281
Onaping,-81.4156,46.6234,804,Clouds,overcast clouds,0.71,-3.44,0.71,0.71,1009,78,10000.0,4.04,327,0.0,100,1732365596,1732398293
Levack,-81.3831,46.6334,804,Clouds,overcast clouds,0.81,-3.34,0.81,0.81,1009,77,10000.0,4.08,326,0.0,100,1732365590,1732398284
Espanola,-81.7665,46.2584,804,Clouds,overcast clouds,2.93,-0.42,2.93,2.93,1009,73,10000.0,3.6,302,0.0,100,1732365608,1732398449
Little Current,-81.9248,45.9793,804,Clouds,overcast clouds,3.59,1.07,3.59,3.59,1010,72,10000.0,2.68,36,0.0,100,1732365592,1732398542
Manitowaning,-81.8104,45.743,804,Clouds,overcast clouds,4.7,1.28,3.62,4.7,1010,67,10000.0,4.38,297,0.0,100,1732365519,1732398560
Wikwemikong,-81.7122,45.808,804,Clouds,overcast clouds,3.45,-1.07,3.45,4.54,1010,66,10000.0,6.0,303,0.0,100,1732365508,1732398524
Massey,-82.0831,46.2001,804,Clouds,overcast clouds,3.03,-0.99,3.03,3.03,1010,70,10000.0,4.74,304,0.0,100,1732365673,1732398537
Blind River,-82.9582,46.1834,804,Clouds,overcast clouds,3.26,-1.36,3.26,3.26,1011,68,10000.0,6.11,310,0.0,100,1732365880,1732398750
Elliot Lake,-82.6331,46.3834,804,Clouds,overcast clouds,1.37,-2.01,1.37,1.37,1010,76,10000.0,3.19,308,0.0,100,1732365841,1732398633
Thessalon,-83.5666,46.2501,804,Clouds,overcast clouds,2.3,-2.26,2.3,2.3,1011,86,10000.0,5.42,308,0.0,99,1732366039,1732398883
Iron Bridge,-83.2202,46.279,804,Clouds,overcast clouds,2.95,-1.45,2.95,2.95,1011,70,10000.0,5.45,310,0.0,100,1732365961,1732398794
Desbarats,-83.9332,46.3334,804,Clouds,overcast clouds,1.92,-1.76,1.92,1.92,1012,95,,3.76,303,0.0,100,1732366143,1732398954
Sault Ste. Marie,-84.3333,46.5168,804,Clouds,overcast clouds,3.16,-2.63,2.9,3.16,1012,87,10000.0,9.26,280,0.0,100,1732366276,1732399014
Prince,-108.3847,52.9669,601,Snow,snow,-8.91,-15.91,-8.91,-8.91,1018,94,136.0,6.05,73,0.0,100,1732373541,1732403296
Bruce Mines,-83.7999,46.3001,804,Clouds,overcast clouds,1.92,-1.95,1.92,1.92,1012,95,,4.04,306,0.0,100,1732366105,1732398929
Ruthven,-82.6706,42.0521,804,Clouds,overcast clouds,6.54,4.67,5.93,6.6,1014,42,10000.0,2.57,270,0.0,100,1732365067,1732399425
Amherstburg,-83.0499,42.1168,804,Clouds,overcast clouds,6.57,3.02,6.06,7.21,1014,76,10000.0,5.66,290,0.0,100,1732365169,1732399505
LaSalle,-73.6352,45.4304,804,Clouds,overcast clouds,6.14,2.48,5.56,6.64,1000,77,10000.0,5.66,300,0.0,100,1732363496,1732396658
Windsor,-83.0165,42.3001,804,Clouds,overcast clouds,7.01,3.58,6.14,7.2,1014,80,10000.0,5.66,290,0.0,100,1732365192,1732399466
Tecumseh,-82.8998,42.3168,804,Clouds,overcast clouds,7.1,3.69,6.17,7.23,1014,82,10000.0,5.66,290,0.0,100,1732365166,1732399435
Kingsville,-82.7387,42.0376,804,Clouds,overcast clouds,6.59,4.73,6.03,6.7,1014,44,10000.0,2.57,270,0.0,100,1732365081,1732399443
Leamington,-82.6062,42.0549,804,Clouds,overcast clouds,6.71,5.57,6.04,6.71,1014,30,10000.0,1.79,298,0.0,100,1732365052,1732399409
Essex,-82.8248,42.1751,804,Clouds,overcast clouds,6.6,3.06,5.99,7.12,1014,65,10000.0,5.66,290,0.0,100,1732365125,1732399441
Harrow,-82.9165,42.0334,804,Clouds,overcast clouds,6.12,4.17,6.02,6.97,1014,71,10000.0,2.57,270,0.0,100,1732365123,1732399487
Colchester,-82.9324,41.9855,804,Clouds,overcast clouds,6.11,4.16,6.07,6.96,1014,79,10000.0,2.57,270,0.0,100,1732365119,1732399498
Blenheim,-81.9998,42.3334,804,Clouds,overcast clouds,5.9,3.2,5.9,5.9,1014,87,10000.0,3.6,280,0.0,100,1732364953,1732399217
Chatham-Kent,-82.1831,42.4001,804,Clouds,overcast clouds,6.11,3.45,6.11,6.11,1014,87,10000.0,3.6,280,0.0,100,1732365008,1732399249
Banff,-115.5698,51.1762,804,Clouds,overcast clouds,-14.79,-14.79,-22.43,-14.79,1026,85,5837.0,1.03,50,0.0,96,1732461299,1732491823
Canmore,-115.3521,51.0834,804,Clouds,overcast clouds,-21.94,-26.6,-21.94,-20.66,1027,99,7805.0,1.44,240,0.0,98,1732461224,1732491794
Collingwood,-80.2164,44.4834,803,Clouds,broken clouds,1.02,-1.42,-0.66,1.16,1018,87,10000.0,2.13,317,0.0,61,1732451376,1732484773
Moose Jaw,-105.5344,50.4001,804,Clouds,overcast clouds,-14.86,-21.86,-14.86,-14.86,1027,85,8074.0,6.69,280,0.0,100,1732458698,1732489606
Prince Albert,-105.7677,53.2001,600,Snow,light snow,-13.03,-20.03,-13.03,-13.03,1028,78,4828.0,4.12,10,0.0,100,1732459477,1732488939
Lloydminster,-110.0016,53.2835,801,Clouds,few clouds,-16.88,-23.88,-16.88,-16.88,1032,92,10000.0,3.6,310,0.0,20,1732460518,1732489932
Fort Saskatchewan,-113.2187,53.7168,804,Clouds,overcast clouds,-13.63,-13.63,-13.64,-13.45,1033,78,2924.0,0.51,300,0.0,97,1732461413,1732490580
Spruce Grove,-113.9187,53.5334,804,Clouds,overcast clouds,-14.25,-14.25,-14.98,-14.15,1033,85,10000.0,0.0,0,0.0,100,1732461529,1732490801
Stony Plain,-114.0021,53.5334,804,Clouds,overcast clouds,-14.26,-14.26,-14.98,-14.15,1033,85,10000.0,0.0,0,0.0,100,1732461549,1732490821
Leduc,-113.552,53.2668,600,Snow,light snow,-15.06,-19.02,-15.12,-14.29,1034,85,10000.0,1.54,280,0.0,100,1732461366,1732490788
Beaumont,-113.4187,53.3501,600,Snow,light snow,-14.93,-18.88,-15.09,-14.26,1033,85,10000.0,1.54,290,0.0,100,1732461357,1732490732
Airdrie,-114.0353,51.3001,802,Clouds,scattered clouds,-18.84,-23.37,-19.2,-17.84,1035,100,10000.0,1.55,252,0.0,26,1732460961,1732491424
Cochrane,-114.4687,51.1834,802,Clouds,scattered clouds,-18.89,-25.52,-20.85,-18.22,1035,51,10000.0,2.57,170,0.0,40,1732461036,1732491557
Okotoks,-113.9828,50.7289,803,Clouds,broken clouds,-18.14,-22.86,-18.93,-17.73,1035,100,6965.0,1.67,235,0.0,82,1732460808,1732491553
Chestermere,-113.8187,51.0334,801,Clouds,few clouds,-18.45,-24.07,-20.23,-17.44,1036,84,10000.0,2.06,50,0.0,20,1732460843,1732491439
High River,-113.8687,50.5834,803,Clouds,broken clouds,-17.89,-22.16,-19.39,-17.89,1035,100,8410.0,1.5,243,0.0,74,1732460745,1732491561
Blackfalds,-113.7853,52.3834,804,Clouds,overcast clouds,-16.85,-16.85,-16.85,-16.85,1035,100,5340.0,1.01,225,0.0,90,1732461181,1732491084
Sylvan Lake,-114.0853,52.3168,804,Clouds,overcast clouds,-17.24,-17.24,-17.24,-17.24,1035,85,10000.0,1.03,0,0.0,100,1732461236,1732491174
Olds,-114.102,51.7834,802,Clouds,scattered clouds,-22.53,-28.49,-22.53,-17.92,1035,100,10000.0,1.91,229,0.0,45,1732461100,1732491317
Drayton Valley,-114.9854,53.2168,804,Clouds,overcast clouds,-18.84,-18.84,-18.84,-18.84,1033,99,8349.0,1.18,173,0.0,91,1732461696,1732491145
Grande Prairie,-118.8027,55.1667,803,Clouds,broken clouds,-18.9,-23.41,-18.9,-18.9,1032,84,10000.0,1.54,340,0.0,75,1732463190,1732491485
Medicine Hat,-110.6683,50.0501,801,Clouds,few clouds,-20.76,-26.76,-20.76,-20.45,1035,84,10000.0,2.06,230,0.0,20,1732459849,1732490920
Brooks,-111.8851,50.5834,802,Clouds,scattered clouds,-23.01,-23.01,-25.21,-23.01,1036,84,10000.0,1.03,250,0.0,27,1732460268,1732491085
Taber,-112.1518,49.8167,802,Clouds,scattered clouds,-25.0,-30.38,-25.0,-25.0,1036,77,7750.0,1.54,230,0.0,42,1732460150,1732491331
Crowsnest Pass,-114.4752,49.6287,804,Clouds,overcast clouds,-13.01,-18.54,-15.85,-13.01,1031,78,2803.0,2.57,150,0.0,100,1732460665,1732491932
Innisfail,-113.9507,52.0269,804,Clouds,overcast clouds,-17.34,-17.34,-17.34,-17.34,1035,85,10000.0,1.03,0,0.0,100,1732461127,1732491218
Camrose,-112.8353,53.0168,804,Clouds,overcast clouds,-21.26,-25.63,-21.26,-21.26,1034,100,3499.0,1.37,306,0.0,95,1732461124,1732490685
Wetaskiwin,-113.3687,52.9668,804,Clouds,overcast clouds,-15.33,-15.33,-15.33,-15.29,1034,100,2999.0,1.2,256,0.0,99,1732461239,1732490827
Wainwright,-110.8572,52.839,804,Clouds,overcast clouds,-20.68,-25.71,-20.68,-20.68,1033,100,3284.0,1.64,327,0.0,100,1732460600,1732490259
Stettler,-112.7186,52.3168,804,Clouds,overcast clouds,-23.18,-28.6,-23.18,-23.18,1035,100,3188.0,1.65,273,0.0,99,1732460907,1732490846
Vermilion,-110.8517,53.3669,804,Clouds,overcast clouds,-17.88,-22.25,-17.88,-17.88,1032,85,4122.0,1.54,290,0.0,100,1732460745,1732490112
Cold Lake,-110.2017,54.4502,600,Snow,light snow,-14.03,-21.03,-14.03,-14.03,1031,85,6437.0,3.6,320,0.0,100,1732460903,1732489642
Bonnyville,-110.735,54.2668,804,Clouds,overcast clouds,-14.11,-14.11,-14.11,-14.11,1032,99,2607.0,0.58,147,0.0,100,1732460977,1732489824
Whitecourt,-115.6855,54.1502,600,Snow,light snow,-15.42,-19.44,-15.42,-15.42,1030,85,3219.0,1.54,320,0.0,100,1732462132,1732491046
Hinton,-117.5857,53.4001,804,Clouds,overcast clouds,-13.94,-13.94,-13.94,-13.94,1029,98,4197.0,0.9,113,0.0,100,1732462373,1732491718
Edson,-116.4356,53.5835,600,Snow,light snow,-14.94,-18.89,-14.94,-14.92,1030,85,10000.0,1.54,100,0.0,75,1732462148,1732491390
Jasper,-118.0857,52.8833,804,Clouds,overcast clouds,-13.7,-18.52,-13.7,-13.63,1027,83,8573.0,2.06,30,0.0,91,1732462349,1732491981
Peace River,-117.286,56.2501,800,Clear,clear sky,-24.83,-24.83,-24.83,-24.83,1033,76,10000.0,0.0,0,0.0,0,1732463177,1732490769
Slave Lake,-114.769,55.2834,600,Snow,light snow,-14.01,-18.88,-14.01,-14.01,1031,72,10000.0,2.06,280,0.0,100,1732462257,1732490481
Fort McMurray,-111.381,56.7268,600,Snow,light snow,-17.27,-21.55,-18.23,-17.27,1033,78,10000.0,1.54,220,0.0,100,1732461921,1732489190
High Level,-117.136,58.5169,802,Clouds,scattered clouds,-20.94,-27.94,-20.94,-20.94,1030,84,10000.0,2.57,150,0.0,40,1732463968,1732489906
Lac La Biche,-111.9686,54.7669,804,Clouds,overcast clouds,-17.08,-17.08,-17.08,-15.72,1032,85,6467.0,0.51,330,0.0,96,1732461424,1732489970
Athabasca,-113.2854,54.7169,804,Clouds,overcast clouds,-16.12,-16.12,-16.12,-16.12,1032,99,1538.0,0.8,15,0.0,95,1732461725,1732490301
Morinville,-113.652,53.8001,804,Clouds,overcast clouds,-14.12,-14.12,-14.31,-14.12,1033,85,10000.0,0.0,0,0.0,100,1732461541,1732490660
Westlock,-113.8688,54.1502,804,Clouds,overcast clouds,-17.68,-17.68,-17.68,-17.68,1033,100,2221.0,0.48,87,0.0,98,1732461695,1732490610
Barrhead,-114.4021,54.1335,804,Clouds,overcast clouds,-17.18,-17.18,-17.18,-17.18,1032,99,2265.0,0.47,158,0.0,96,1732461819,1732490743
Smoky Lake,-112.4686,54.1169,804,Clouds,overcast clouds,-23.91,-23.91,-23.91,-23.91,1032,100,2980.0,0.81,5,0.0,95,1732461349,1732490284
Elk Point,-110.9017,53.9002,804,Clouds,overcast clouds,-18.0,-18.0,-18.0,-18.0,1032,100,5008.0,0.64,42,0.0,100,1732460909,1732489972
St. Paul,-111.2851,53.9835,804,Clouds,overcast clouds,-18.82,-23.14,-18.82,-18.82,1032,100,2516.0,1.47,40,0.0,99,1732461026,1732490039
Two Hills,-111.7518,53.7169,804,Clouds,overcast clouds,-19.08,-24.8,-23.93,-18.73,1033,84,1287.0,2.06,300,0.0,98,1732461061,1732490228
Vegreville,-112.0518,53.5001,804,Clouds,overcast clouds,-21.98,-28.98,-22.97,-18.83,1033,84,1213.0,3.09,310,0.0,99,1732461071,1732490362
Lamont,-112.8019,53.7669,804,Clouds,overcast clouds,-19.78,-19.78,-19.78,-19.78,1033,100,2616.0,1.26,251,0.0,99,1732461328,1732490466
Fort Saskatchewan,-113.2187,53.7168,804,Clouds,overcast clouds,-13.63,-13.63,-13.64,-13.45,1033,78,2924.0,0.51,300,0.0,97,1732461413,1732490580
Beaverlodge,-119.4361,55.2166,803,Clouds,broken clouds,-19.36,-19.36,-19.36,-19.36,1034,100,4964.0,0.43,33,0.0,72,1732463358,1732491621
Fairview,-118.3861,56.0668,803,Clouds,broken clouds,-22.95,-28.04,-22.95,-22.95,1033,77,6732.0,1.54,130,0.0,65,1732463380,1732491094
Spirit River,-118.8361,55.7833,803,Clouds,broken clouds,-22.76,-28.17,-22.76,-22.76,1033,100,10000.0,1.67,200,0.0,61,1732463395,1732491296
Rycroft,-118.7195,55.75,803,Clouds,broken clouds,-22.68,-28.46,-22.68,-22.68,1033,100,10000.0,1.82,197,0.0,63,1732463356,1732491278
Valleyview,-117.2859,55.0667,804,Clouds,overcast clouds,-15.51,-15.51,-15.51,-15.51,1031,98,1617.0,0.91,93,0.0,99,1732462794,1732491152
Fox Creek,-116.8024,54.4001,804,Clouds,overcast clouds,-13.68,-13.68,-13.68,-13.68,1030,94,750.0,1.08,114,0.0,98,1732462474,1732491240
Mayerthorpe,-115.1355,53.9502,804,Clouds,overcast clouds,-15.58,-15.58,-15.58,-15.58,1032,99,3435.0,0.84,165,0.0,98,1732461941,1732490973
Onoway,-114.2021,53.7001,804,Clouds,overcast clouds,-14.21,-14.21,-14.32,-14.21,1033,100,3573.0,0.47,167,0.0,97,1732461645,1732490821
Swan Hills,-115.4023,54.7168,804,Clouds,overcast clouds,-14.78,-18.7,-14.78,-14.78,1030,94,486.0,1.54,133,0.0,100,1732462234,1732490808
Drumheller,-112.7101,51.4617,803,Clouds,broken clouds,-15.37,-19.38,-15.37,-15.37,1036,78,3993.0,1.54,260,0.0,84,1732460684,1732491066
Trochu,-113.2186,51.8334,803,Clouds,broken clouds,-23.66,-28.31,-23.66,-23.66,1036,100,7055.0,1.36,297,0.0,58,1732460901,1732491093
Three Hills,-113.2686,51.7001,802,Clouds,scattered clouds,-24.19,-29.34,-24.19,-24.19,1036,100,6890.0,1.5,282,0.0,47,1732460879,1732491139
Hanna,-111.9018,51.6334,803,Clouds,broken clouds,-22.18,-29.18,-22.18,-22.18,1035,100,4807.0,2.73,304,0.0,82,1732460533,1732490828
Rocky Mountain House,-114.9188,52.3668,803,Clouds,broken clouds,-14.94,-19.97,-14.94,-14.94,1034,78,10000.0,2.06,120,0.0,81,1732461449,1732491361
Sundre,-114.6353,51.8001,803,Clouds,broken clouds,-22.84,-22.84,-22.84,-22.84,1034,92,10000.0,0.51,210,0.0,73,1732461233,1732491441
Carstairs,-114.102,51.5668,802,Clouds,scattered clouds,-23.17,-29.02,-23.17,-22.65,1035,100,10000.0,1.82,229,0.0,37,1732461045,1732491373
Didsbury,-114.1353,51.6668,802,Clouds,scattered clouds,-22.47,-28.45,-22.99,-22.47,1035,100,10000.0,1.92,227,0.0,43,1732461078,1732491355
Crossfield,-114.0353,51.4334,802,Clouds,scattered clouds,-19.23,-24.02,-19.23,-18.47,1035,100,10000.0,1.63,240,0.0,26,1732460995,1732491391
Amherst,-64.1987,45.8335,804,Clouds,overcast clouds,4.19,-0.79,2.21,4.28,992,81,10000.0,7.72,290,0.0,100,1732447784,1732480675
Antigonish,-61.9986,45.6169,500,Rain,light rain,3.96,0.57,3.64,4.1,990,95,3474.0,4.02,256,0.25,100,1732447214,1732480189
Digby,-65.7655,44.6169,804,Clouds,overcast clouds,2.53,-3.85,2.53,2.61,998,78,10000.0,10.59,286,0.0,100,1732447930,1732481282
Kentville,-64.4988,45.0835,500,Rain,light rain,3.24,-0.94,3.14,4.28,994,93,7573.0,5.14,240,0.51,100,1732447712,1732480891
Bridgewater,-64.5155,44.3835,804,Clouds,overcast clouds,3.8,-1.63,3.39,4.82,996,87,10000.0,8.75,280,0.0,100,1732447586,1732481025
Summerside,-63.7876,46.3959,500,Rain,light rain,3.1,-2.01,2.84,3.71,990,100,166.0,7.2,300,0.25,100,1732447796,1732480466
Alberton,-64.0654,46.8168,500,Rain,light rain,3.95,-1.38,3.07,3.95,989,97,65.0,8.58,292,0.41,100,1732447947,1732480448
Corner Brook,-57.9484,48.9667,500,Rain,light rain,5.09,5.09,5.09,5.09,986,95,10000.0,1.2,54,0.12,100,1732533420,1732564875
Gander,-54.5906,48.9682,501,Rain,moderate rain,5.09,5.09,5.07,5.09,986,100,6437.0,0.0,0,1.55,100,1732532614,1732564069
Grand Falls-Windsor,-55.6649,48.9332,500,Rain,light rain,5.84,4.65,5.84,5.84,986,95,8348.0,1.71,225,0.51,100,1732532864,1732564335
Labrador City,-66.9114,52.9463,600,Snow,light snow,-0.46,-5.57,-1.05,-0.46,1003,98,4828.0,5.14,30,0.0,100,1732450071,1732479691
Baie-Comeau,-68.1489,49.2168,500,Rain,light rain,1.82,-0.93,1.82,1.82,996,100,10000.0,2.57,320,0.0,100,1732449441,1732480914
Rimouski,-68.524,48.4488,601,Snow,snow,1.82,-3.56,1.1,1.82,997,99,60.0,6.96,327,0.0,100,1732449361,1732481174
Rouyn-Noranda,-79.0288,48.2398,804,Clouds,overcast clouds,-4.95,-10.02,-4.95,-4.95,1017,93,9656.0,3.6,280,0.0,100,1732451840,1732483739
Sept-Îles,-66.3821,50.2001,500,Rain,light rain,3.93,0.47,3.24,4.0,995,90,10000.0,4.12,20,0.25,100,1732449244,1732480263
Val-d'Or,-77.7828,48.1002,804,Clouds,overcast clouds,-3.95,-9.61,-3.95,-3.95,1016,86,10000.0,4.63,300,0.0,100,1732451510,1732483471
Granby,-72.7324,45.4001,804,Clouds,overcast clouds,0.79,-2.63,-0.71,1.14,1011,68,10000.0,3.09,260,0.0,96,1732449750,1732482806
Saint-Hyacinthe,-72.9491,45.6168,803,Clouds,broken clouds,0.68,-4.73,0.08,1.66,1011,74,10000.0,6.3,278,0.0,53,1732449844,1732482816
Joliette,-73.4492,46.0168,802,Clouds,scattered clouds,0.24,-4.68,-0.03,1.67,1011,77,10000.0,5.11,291,0.0,25,1732450042,1732482858
Shawinigan,-72.7491,46.5668,803,Clouds,broken clouds,0.22,-3.31,-0.43,1.23,1008,74,10000.0,3.09,300,0.0,51,1732449983,1732482581
Salaberry-de-Valleyfield,-74.1325,45.2501,801,Clouds,few clouds,0.01,-3.98,-0.69,0.97,1013,71,10000.0,3.6,270,0.0,15,1732450058,1732483170
Stratford,-80.9497,43.3668,803,Clouds,broken clouds,-1.68,-1.68,-2.31,0.1,1019,99,10000.0,0.49,19,0.0,71,1732451351,1732485151
Collingwood,-80.2164,44.4834,803,Clouds,broken clouds,1.02,-1.42,-0.66,1.16,1018,87,10000.0,2.13,317,0.0,61,1732451376,1732484773
Gravenhurst,-79.3663,44.9168,800,Clear,clear sky,-4.9,-4.9,-4.9,-3.58,1018,93,10000.0,0.0,0,0.0,0,1732451252,1732484489
Huntsville,-79.2163,45.3334,800,Clear,clear sky,-3.71,-6.06,-5.29,-3.71,1018,93,10000.0,1.54,323,0.0,3,1732451295,1732484374
Kenora,-94.4337,49.8167,804,Clouds,overcast clouds,-2.46,-6.54,-2.9,-2.46,1018,80,10000.0,3.09,120,0.0,100,1732455894,1732487081
Cobourg,-78.1652,43.9598,800,Clear,clear sky,0.98,0.98,-0.05,0.99,1018,86,10000.0,1.03,310,0.0,10,1732450788,1732484377
Port Hope,-78.293,43.9512,801,Clouds,few clouds,0.83,0.83,-1.7,0.88,1018,86,10000.0,1.03,310,0.0,13,1732450817,1732484409
Midland,-79.883,44.7501,802,Clouds,scattered clouds,-1.19,-4.52,-1.45,1.79,1018,70,10000.0,2.58,9,0.0,49,1732451345,1732484644
Bracebridge,-79.3163,45.0334,800,Clear,clear sky,-4.71,-4.71,-4.73,-3.15,1018,93,10000.0,0.0,0,0.0,0,1732451262,1732484455
Parry Sound,-80.033,45.3501,800,Clear,clear sky,-1.97,-4.57,-1.97,2.95,1018,80,10000.0,1.87,3,0.0,8,1732451495,1732484567
Brandon,-99.9531,49.8469,804,Clouds,overcast clouds,-9.84,-16.84,-9.84,-9.84,1021,79,10000.0,6.17,260,0.0,100,1732457227,1732488398
Portage la Prairie,-98.2926,49.9728,804,Clouds,overcast clouds,-7.28,-13.31,-9.94,-7.28,1019,63,10000.0,4.1,245,0.0,100,1732456857,1732487970
Steinbach,-96.6845,49.5258,804,Clouds,overcast clouds,-2.7,-5.18,-3.52,-2.38,1018,94,1044.0,1.71,181,0.0,100,1732456367,1732487688
Thompson,-97.8558,55.7435,600,Snow,light snow,-14.91,-21.91,-14.91,-14.91,1030,92,10000.0,6.17,40,0.0,100,1732458340,1732486278
Dauphin,-100.0502,51.1494,600,Snow,light snow,-6.92,-9.72,-6.92,-6.92,1018,93,10000.0,1.54,290,0.0,100,1732457564,1732488108
Flin Flon,-101.865,54.7682,600,Snow,light snow,-12.88,-19.88,-12.88,-12.88,1028,94,167.0,4.12,36,0.0,100,1732458996,1732487546
The Pas,-101.2541,53.8251,600,Snow,light snow,-11.99,-18.99,-11.99,-11.99,1025,79,2012.0,5.14,40,0.0,100,1732458570,1732487680
Selkirk,-96.8845,50.1436,600,Snow,light snow,-3.09,-3.09,-3.27,-1.96,1018,91,624.0,0.45,148,0.0,100,1732456559,1732487592
Winkler,-97.941,49.1817,804,Clouds,overcast clouds,-6.9,-13.64,-7.02,-6.0,1019,73,10000.0,5.14,300,0.0,100,1732456591,1732488068
Morden,-98.1014,49.1919,804,Clouds,overcast clouds,-7.15,-13.96,-8.76,-7.08,1020,73,10000.0,5.14,300,0.0,100,1732456632,1732488104
Estevan,-102.9842,49.1334,800,Clear,clear sky,-14.88,-21.88,-14.89,-14.32,1025,78,10000.0,7.72,290,0.0,0,1732457792,1732489288
Weyburn,-103.8511,49.6668,804,Clouds,overcast clouds,-14.88,-21.88,-14.88,-14.88,1025,85,7021.0,7.72,310,0.0,95,1732458122,1732489375
North Battleford,-108.2847,52.7834,600,Snow,light snow,-12.95,-19.17,-15.33,-12.95,1030,85,8047.0,3.09,310,0.0,100,1732459967,1732489658
Humboldt,-105.1255,52.2001,804,Clouds,overcast clouds,-14.65,-21.65,-14.65,-14.65,1026,94,5411.0,4.96,351,0.0,100,1732459052,1732489056
Martensville,-106.6679,52.2834,803,Clouds,broken clouds,-19.08,-26.08,-19.08,-19.08,1028,84,10000.0,4.63,330,0.0,75,1732459445,1732489404
Meadow Lake,-108.4347,54.1335,804,Clouds,overcast clouds,-14.22,-18.31,-14.22,-14.22,1030,98,2068.0,1.65,353,0.0,100,1732460385,1732489312
Melfort,-104.6177,52.8667,600,Snow,light snow,-13.93,-20.93,-13.93,-13.93,1027,85,278.0,4.12,10,0.0,100,1732459109,1732488756
Kindersley,-109.1682,51.4668,801,Clouds,few clouds,-21.99,-28.99,-21.99,-21.99,1031,84,10000.0,3.09,310,0.0,20,1732459834,1732490215
Warman,-106.5679,52.3168,803,Clouds,broken clouds,-19.05,-26.05,-19.05,-19.05,1028,84,10000.0,4.63,330,0.0,75,1732459429,1732489371
Moose Jaw,-105.5344,50.4001,804,Clouds,overcast clouds,-14.86,-21.86,-14.86,-14.86,1027,85,8074.0,6.69,280,0.0,100,1732458698,1732489606
Red Deer,-113.802,52.2668,804,Clouds,overcast clouds,-16.73,-16.73,-16.73,-16.73,1035,85,10000.0,1.03,0,0.0,100,1732461154,1732491119
Grande Prairie,-118.8027,55.1667,803,Clouds,broken clouds,-18.9,-23.41,-18.9,-18.9,1032,84,10000.0,1.54,340,0.0,75,1732463190,1732491485
Medicine Hat,-110.6683,50.0501,801,Clouds,few clouds,-20.76,-26.76,-20.76,-20.45,1035,84,10000.0,2.06,230,0.0,20,1732459849,1732490920
Brooks,-111.8851,50.5834,802,Clouds,scattered clouds,-23.01,-23.01,-25.21,-23.01,1036,84,10000.0,1.03,250,0.0,27,1732460268,1732491085
Wetaskiwin,-113.3687,52.9668,804,Clouds,overcast clouds,-15.33,-15.33,-15.33,-15.29,1034,100,2999.0,1.2,256,0.0,99,1732461239,1732490827
Camrose,-112.8353,53.0168,804,Clouds,overcast clouds,-21.26,-25.63,-21.26,-21.26,1034,100,3499.0,1.37,306,0.0,95,1732461124,1732490685
Lloydminster,-110.0016,53.2835,801,Clouds,few clouds,-16.88,-23.88,-16.88,-16.88,1032,92,10000.0,3.6,310,0.0,20,1732460518,1732489932
Banff,-115.5698,51.1762,804,Clouds,overcast clouds,-14.79,-14.79,-22.43,-14.79,1026,85,5837.0,1.03,50,0.0,96,1732461299,1732491823
Canmore,-115.3521,51.0834,804,Clouds,overcast clouds,-21.94,-26.6,-21.94,-20.66,1027,99,7805.0,1.44,240,0.0,98,1732461224,1732491794
Vernon,-119.2691,50.2581,500,Rain,light rain,1.89,0.34,1.63,3.75,1018,91,120.0,1.54,250,0.63,100,1732461964,1732492934
Penticton,-119.5858,49.4806,500,Rain,light rain,3.81,3.81,3.6,4.12,1017,93,10000.0,1.03,0,0.16,100,1732461859,1732493192
Courtenay,-124.9936,49.6866,520,Rain,light intensity shower rain,5.22,2.37,3.4,5.77,1015,86,10000.0,3.6,320,0.0,100,1732463205,1732494441
Parksville,-124.3195,49.3163,804,Clouds,overcast clouds,6.09,6.09,4.82,6.8,1015,99,10000.0,1.03,140,0.0,100,1732462959,1732494365
Qualicum Beach,-124.4361,49.3468,804,Clouds,overcast clouds,5.74,5.74,4.69,6.66,1015,99,10000.0,1.03,140,0.0,99,1732462994,1732494386
Campbell River,-125.2446,50.0163,701,Mist,mist,3.75,3.75,2.55,4.74,1015,100,9656.0,0.0,0,0.0,100,1732463343,1732494425
Cranbrook,-115.7688,49.4999,600,Snow,light snow,-3.09,-3.09,-3.09,-3.09,1025,93,10000.0,0.0,0,0.0,100,1732460946,1732492272
Kimberley,-115.9855,49.6833,600,Snow,light snow,-4.55,-4.55,-4.55,-4.55,1025,93,10000.0,0.0,0,0.0,100,1732461041,1732492281
Nelson,-117.2855,49.4999,500,Rain,light rain,3.08,1.07,2.45,3.08,1019,87,1225.0,2.06,120,0.17,100,1732461311,1732492635
Revelstoke,-118.2023,50.9832,600,Snow,light snow,0.01,-2.52,0.01,0.01,1018,100,4828.0,2.06,130,0.0,100,1732461884,1732492502
Dawson City,-139.4263,64.0625,804,Clouds,overcast clouds,-15.51,-15.51,-15.51,-15.51,1021,95,10000.0,1.13,102,0.0,100,1732472181,1732492395
Hay River,-115.7999,60.8156,801,Clouds,few clouds,-16.01,-23.01,-16.02,-16.01,1027,78,10000.0,6.17,190,0.0,20,1732464650,1732488583
Inuvik,-133.7218,68.3499,600,Snow,light snow,-16.55,-23.55,-18.44,-16.52,1011,89,9656.0,4.12,80,0.0,100,1732475048,1732486789
Tuktoyaktuk,-133.0374,69.4541,600,Snow,light snow,-16.0,-23.0,-16.0,-16.0,1012,85,9656.0,5.14,140,0.0,100,1732477071,1732484438
Rankin Inlet,-92.0832,62.8173,802,Clouds,scattered clouds,-19.82,-26.82,-19.82,-19.82,1030,71,10000.0,5.14,290,0.0,40,1732460009,1732481837
Arviat,-94.0585,61.1088,800,Clear,clear sky,-24.95,-31.95,-24.95,-24.95,1032,77,10000.0,6.17,330,0.0,0,1732459566,1732483229
Iqaluit,-68.5145,63.7506,803,Clouds,broken clouds,-5.17,-5.17,-5.17,-5.15,1009,85,10000.0,0.0,0,0.0,75,1732454919,1732475612
Yellowknife,-114.3525,62.456,600,Snow,light snow,-9.23,-16.23,-9.71,-9.21,1024,93,10000.0,5.14,180,0.0,75,1732465156,1732487382
Whitehorse,-135.0538,60.7161,802,Clouds,scattered clouds,-16.8,-23.8,-17.21,-15.5,1025,84,10000.0,10.8,180,0.0,40,1732469231,1732493246
Watson Lake,-128.7089,60.0635,800,Clear,clear sky,-30.05,-30.05,-30.05,-30.05,1034,69,10000.0,0.0,0,0.0,0,1732467403,1732492027
New York,-74.006,40.7143,801,Clouds,few clouds,10.28,,7.68,11.1,1017,52,10000.0,3.6,240,0.0,20,1732535702,1732570303
Los Angeles,-118.2437,34.0522,721,Haze,haze,19.42,,17.22,21.18,1020,57,10000.0,4.12,250,0.0,40,1732545344,1732581900
Chicago,-87.65,41.85,804,Clouds,overcast clouds,7.08,,6.18,7.79,1015,81,10000.0,2.68,334,0.0,100,1732539168,1732573387
Houston,-95.3633,29.7633,800,Clear,clear sky,26.99,,26.08,28.11,1017,65,10000.0,4.63,240,0.0,0,1732539302,1732576957
Phoenix,-112.074,33.4484,804,Clouds,overcast clouds,24.15,,22.87,25.01,1018,26,10000.0,0.45,190,0.0,97,1732543782,1732580500
Philadelphia,-75.1638,39.9523,803,Clouds,broken clouds,11.18,,9.43,12.23,1017,63,10000.0,2.06,190,0.0,75,1732535857,1732570703
San Antonio,-98.4936,29.4241,801,Clouds,few clouds,23.57,,21.39,25.19,1019,49,10000.0,7.2,10,0.0,20,1732540012,1732577749
San Diego,-117.1573,32.7153,802,Clouds,scattered clouds,20.94,,18.76,23.85,1019,54,10000.0,6.69,310,0.0,40,1732544906,1732581816
Dallas,-96.7836,32.7668,803,Clouds,broken clouds,10.84,,10.25,11.68,1024,69,10000.0,6.69,330,0.0,75,1732540020,1732576920
San Jose,-121.895,37.3394,804,Clouds,overcast clouds,14.24,,12.13,15.39,1016,89,10000.0,6.71,197,0.0,100,1732546682,1732582314
Austin,-97.7431,30.2672,800,Clear,clear sky,16.81,,15.09,17.93,1021,56,10000.0,2.24,345,0.0,4,1732539935,1732577466
Jacksonville,-81.6556,30.3322,800,Clear,clear sky,16.82,,15.14,17.8,1022,74,10000.0,2.06,150,0.0,0,1732536080,1732573598
Fort Worth,-97.3208,32.7254,804,Clouds,overcast clouds,10.14,,9.16,10.96,1024,68,10000.0,7.2,330,0.0,100,1732540144,1732577054
Columbus,-82.9988,39.9612,701,Mist,mist,14.0,,13.3,14.95,1011,91,9656.0,4.63,210,0.0,100,1732537741,1732572581
Charlotte,-80.8431,35.2271,802,Clouds,scattered clouds,16.49,,13.64,17.29,1018,69,10000.0,3.17,221,0.0,46,1732536522,1732572765
Indianapolis,-86.158,39.7684,804,Clouds,overcast clouds,11.58,,10.29,12.51,1013,86,10000.0,9.77,320,0.0,100,1732538469,1732573370
San Francisco,-122.4194,37.7749,701,Mist,mist,12.72,,11.67,13.62,1016,90,2414.0,2.24,121,0.0,100,1732546872,1732582376
Seattle,-122.3321,47.6062,300,Drizzle,light intensity drizzle,8.27,,7.04,9.17,1015,93,10000.0,2.24,345,0.0,100,1732548589,1732580617
Denver,-104.9847,39.7392,801,Clouds,few clouds,6.75,,5.13,7.86,1019,47,10000.0,0.89,139,0.0,12,1732542986,1732577892
Washington,-120.5015,47.5001,804,Clouds,overcast clouds,2.16,,0.92,3.65,1016,83,10000.0,0.68,87,0.0,100,1732548127,1732580201
Boston,-71.0598,42.3584,801,Clouds,few clouds,6.47,,4.52,7.84,1015,61,10000.0,2.19,276,0.0,15,1732535270,1732569320
El Paso,-106.2005,31.8001,803,Clouds,broken clouds,21.42,,20.39,22.81,1019,16,10000.0,5.14,230,0.0,75,1732542157,1732579304
Nashville,-86.7844,36.1659,701,Mist,mist,18.24,,17.16,19.06,1014,88,10000.0,3.09,220,0.0,100,1732538080,1732574059
Detroit,-83.0458,42.3314,804,Clouds,overcast clouds,10.16,,8.6,10.56,1008,88,10000.0,2.57,190,0.0,100,1732538144,1732572201
Oklahoma City,-97.5164,35.4676,803,Clouds,broken clouds,6.66,,5.87,7.25,1027,55,10000.0,7.72,350,0.0,75,1732540559,1732576733
Portland,-122.6762,45.5234,803,Clouds,broken clouds,10.24,,8.99,11.16,1014,81,10000.0,2.68,200,0.0,75,1732548248,1732581124
Las Vegas,-115.1372,36.175,803,Clouds,broken clouds,14.58,,13.58,15.62,1018,41,10000.0,7.72,50,0.0,75,1732544891,1732580861
Memphis,-90.049,35.1495,804,Clouds,overcast clouds,18.93,,18.34,19.09,1018,88,10000.0,2.06,240,0.0,100,1732538722,1732574985
Louisville,-85.7594,38.2542,300,Drizzle,light intensity drizzle,15.93,,15.12,16.7,1011,92,6437.0,3.09,190,0.0,100,1732538139,1732573508
Baltimore,-76.6122,39.2904,804,Clouds,overcast clouds,11.5,,10.27,12.82,1016,68,10000.0,2.06,130,0.0,100,1732536101,1732571155
Milwaukee,-87.9668,43.0006,804,Clouds,overcast clouds,3.39,,2.49,4.18,1015,82,10000.0,8.75,300,0.0,100,1732539443,1732573264
Albuquerque,-106.6511,35.0845,802,Clouds,scattered clouds,14.23,,12.57,15.26,1020,30,10000.0,2.06,100,0.0,40,1732542700,1732578978
Tucson,-110.9265,32.2217,800,Clear,clear sky,23.86,,23.07,24.94,1018,21,10000.0,3.09,280,0.0,0,1732543346,1732580384
Fresno,-119.8343,36.6666,804,Clouds,overcast clouds,15.69,,15.0,16.13,1019,66,10000.0,6.69,130,0.0,100,1732546089,1732581918
Sacramento,-121.3177,38.4666,701,Mist,mist,12.71,,11.72,13.37,1016,86,4828.0,3.13,135,0.32,100,1732546712,1732582008
Kansas City,-94.5786,39.0997,800,Clear,clear sky,3.26,,1.94,4.2,1026,46,10000.0,4.12,330,0.0,0,1732540387,1732575495
Mesa,-111.8226,33.4223,800,Clear,clear sky,23.64,,22.56,24.77,1018,24,10000.0,1.54,0,0.0,0,1732543718,1732580443
Atlanta,-84.388,33.749,800,Clear,clear sky,17.01,,15.56,18.6,1019,76,10000.0,2.57,190,0.0,0,1732537173,1732573816
Omaha,-95.9378,41.2586,800,Clear,clear sky,0.93,,-0.42,1.97,1027,50,10000.0,4.12,320,0.0,0,1732541059,1732575475
Colorado Springs,-104.8214,38.8339,803,Clouds,broken clouds,2.4,,1.06,3.15,1022,80,10000.0,5.66,160,0.0,75,1732542806,1732577993
Virginia Beach,-75.978,36.8529,802,Clouds,scattered clouds,12.83,,11.12,14.04,1018,80,10000.0,3.09,160,0.0,40,1732535583,1732571368
Raleigh,-78.6386,35.7721,803,Clouds,broken clouds,13.49,,11.9,15.23,1018,71,10000.0,3.25,206,0.0,82,1732536068,1732572160
Miami,-80.1937,25.7743,801,Clouds,few clouds,22.99,,21.68,24.01,1021,77,10000.0,3.6,40,0.0,20,1732535193,1732573782
Oakland,-83.3999,42.6667,500,Rain,light rain,7.84,,7.32,8.66,1008,92,10000.0,1.54,180,0.49,100,1732538287,1732572227
Minneapolis,-93.2638,44.98,800,Clear,clear sky,-4.42,,-5.38,-3.18,1023,65,10000.0,8.23,300,0.0,0,1732541078,1732574172
Tulsa,-95.9003,36.1001,800,Clear,clear sky,8.5,,7.58,9.28,1026,55,10000.0,5.66,340,0.0,0,1732540260,1732576256
Arlington,-97.1081,32.7357,804,Clouds,overcast clouds,10.43,,9.5,10.99,1024,66,10000.0,8.23,340,0.0,100,1732540094,1732577002
New Orleans,-90.0751,29.9547,802,Clouds,scattered clouds,22.8,,21.67,23.89,1020,74,10000.0,3.09,200,0.0,40,1732538055,1732575664
Wichita,-97.3375,37.6922,800,Clear,clear sky,4.41,,3.47,5.45,1027,48,10000.0,5.14,350,0.0,0,1732540836,1732576370
Cleveland,-81.6954,41.4995,804,Clouds,overcast clouds,11.68,,10.88,12.42,1010,82,10000.0,4.63,190,0.0,100,1732537679,1732572018
Tampa,-82.4584,27.9475,800,Clear,clear sky,18.59,,17.0,20.62,1021,68,10000.0,0.0,0,0.0,0,1732535986,1732574076
Bakersfield,-119.0187,35.3733,804,Clouds,overcast clouds,15.57,,14.95,17.96,1018,77,10000.0,5.66,290,0.0,100,1732545710,1732581905
Aurora,-104.8319,39.7294,803,Clouds,broken clouds,6.27,,4.44,7.75,1020,49,10000.0,6.17,160,0.0,75,1732542948,1732577857
Honolulu,-157.8583,21.3069,802,Clouds,scattered clouds,27.06,,25.48,28.27,1013,66,10000.0,4.63,200,0.0,40,1732553357,1732592906
Anaheim,-117.9145,33.8353,801,Clouds,few clouds,21.9,,19.73,23.23,1019,49,10000.0,2.24,360,0.0,20,1732545236,1732581850
Santa Ana,-117.8678,33.7456,803,Clouds,broken clouds,22.28,,19.02,23.46,1019,47,10000.0,2.06,320,0.0,75,1732545212,1732581850
Corpus Christi,-97.3964,27.8006,801,Clouds,few clouds,25.97,,24.99,27.0,1017,80,10000.0,5.14,130,0.0,20,1732539556,1732577678
Riverside,-116.0508,33.7333,800,Clear,clear sky,20.86,,19.04,21.6,1018,25,10000.0,2.06,150,0.0,0,1732544774,1732581416
St Louis,-90.1979,38.6273,804,Clouds,overcast clouds,7.65,,6.84,8.39,1020,73,10000.0,7.2,320,0.0,100,1732539262,1732574516
Lexington,-84.4777,37.9887,500,Rain,light rain,15.68,,15.46,16.18,1012,86,10000.0,6.17,210,0.86,100,1732537792,1732573240
Stockton,-121.2908,37.9577,804,Clouds,overcast clouds,13.7,,13.32,14.03,1017,83,10000.0,3.6,150,0.0,100,1732546629,1732582078
Pittsburgh,-79.9959,40.4406,804,Clouds,overcast clouds,11.71,,10.69,12.84,1013,80,10000.0,2.57,180,0.0,100,1732537096,1732571784
Saint Paul,-93.0933,44.9444,800,Clear,clear sky,-3.8,,-4.92,-2.84,1022,66,10000.0,8.23,300,0.0,0,1732541030,1732574138
Cincinnati,-84.4569,39.162,804,Clouds,overcast clouds,15.15,,14.32,15.98,1011,90,10000.0,3.09,210,0.0,100,1732537965,1732573057
Anchorage,-149.9003,61.2181,601,Snow,snow,0.19,,-1.06,2.05,1014,91,2414.0,1.34,300,0.0,100,1732559592,1732582850
Henderson,-114.9819,36.0397,804,Clouds,overcast clouds,14.88,,14.51,15.65,1018,37,10000.0,3.6,40,0.0,100,1732544834,1732580843
Greensboro,-79.792,36.0726,800,Clear,clear sky,12.84,,10.57,14.47,1018,65,10000.0,2.04,227,0.0,10,1732536388,1732572395
Plano,-96.6989,33.0198,804,Clouds,overcast clouds,10.28,,9.74,11.09,1024,69,10000.0,5.14,330,0.0,100,1732540033,1732576867
Newark,-74.1724,40.7357,803,Clouds,broken clouds,9.28,,7.04,10.95,1017,56,10000.0,3.6,240,0.0,75,1732535745,1732570339
Lincoln,-96.667,40.8,800,Clear,clear sky,1.95,,1.05,2.85,1027,50,10000.0,0.45,359,0.0,0,1732541159,1732575726
Orlando,-81.3792,28.5383,800,Clear,clear sky,19.33,,17.75,21.05,1022,76,10000.0,2.57,80,0.0,0,1732535797,1732573748
Irvine,-117.8231,33.6695,803,Clouds,broken clouds,22.49,,18.63,23.58,1019,45,10000.0,1.54,270,0.0,75,1732545192,1732581850
Toledo,-83.5552,41.6639,804,Clouds,overcast clouds,13.4,,13.1,14.01,1008,82,10000.0,3.09,210,0.0,100,1732538153,1732572436
Jersey City,-74.0776,40.7282,801,Clouds,few clouds,10.01,,7.28,11.06,1017,53,10000.0,3.6,240,0.0,20,1732535721,1732570318
Chula Vista,-117.0842,32.64,802,Clouds,scattered clouds,21.26,,18.76,23.85,1019,54,10000.0,6.69,310,0.0,40,1732544879,1732581808
Durham,-78.8664,36.0335,803,Clouds,broken clouds,13.74,,12.36,15.24,1018,68,10000.0,1.99,211,0.0,57,1732536160,1732572178
Fort Wayne,-85.1289,41.1306,804,Clouds,overcast clouds,12.46,,11.26,13.36,1011,86,10000.0,6.17,270,0.0,100,1732538442,1732572903
St. Petersburg,-82.6793,27.7709,800,Clear,clear sky,19.33,,17.7,20.49,1021,63,10000.0,3.6,340,0.0,0,1732536019,1732574150
Lubbock,-101.8338,33.6001,803,Clouds,broken clouds,10.14,,8.54,10.14,1026,53,10000.0,4.12,40,0.0,75,1732541342,1732578022
Norfolk,-71.2495,42.1668,800,Clear,clear sky,5.21,,3.34,7.18,1016,63,10000.0,0.45,257,0.0,0,1732535282,1732569399
Madison,-86.5667,34.7334,804,Clouds,overcast clouds,20.09,,19.29,20.89,1016,75,10000.0,4.63,190,0.0,100,1732537829,1732574207
Gilbert,-111.789,33.3528,800,Clear,clear sky,23.68,,22.57,24.77,1018,25,10000.0,1.54,0,0.0,0,1732543700,1732580444
Reno,-119.8138,39.5296,300,Drizzle,light intensity drizzle,5.18,,3.76,6.43,1018,79,10000.0,4.63,160,0.0,75,1732546515,1732581483
Winston-Salem,-80.2442,36.0999,800,Clear,clear sky,14.03,,10.93,15.97,1017,52,10000.0,1.94,231,0.0,8,1732536500,1732572499
Glendale,-112.186,33.5387,802,Clouds,scattered clouds,23.85,,22.56,24.94,1018,26,10000.0,2.06,40,0.0,40,1732543820,1732580515
Hialeah,-80.2781,25.8576,800,Clear,clear sky,22.97,,21.67,24.01,1021,74,10000.0,3.6,40,0.0,0,1732535223,1732573793
Garland,-96.6389,32.9126,802,Clouds,scattered clouds,10.59,,9.97,11.31,1024,69,10000.0,5.66,340,0.0,40,1732540004,1732576866
Scottsdale,-111.899,33.5092,800,Clear,clear sky,23.68,,22.23,24.95,1018,25,10000.0,1.54,0,0.0,0,1732543748,1732580450
Irving,-96.9489,32.814,803,Clouds,broken clouds,10.88,,10.16,11.45,1023,64,10000.0,8.23,340,0.0,75,1732540066,1732576954
Chesapeake,-76.2749,36.819,800,Clear,clear sky,11.85,,10.55,14.02,1018,76,10000.0,0.0,0,0.0,0,1732535650,1732571444
North Las Vegas,-115.1175,36.1989,803,Clouds,broken clouds,14.94,,13.88,15.92,1018,41,10000.0,7.72,50,0.0,75,1732544889,1732580853
Fremont,-121.9886,37.5483,804,Clouds,overcast clouds,12.85,,11.72,14.23,1016,92,9656.0,4.47,126,0.0,100,1732546735,1732582306
Baton Rouge,-91.1545,30.4508,804,Clouds,overcast clouds,23.93,,22.74,24.4,1019,72,10000.0,0.45,207,0.0,100,1732538375,1732575862
Richmond,-77.4603,37.5538,800,Clear,clear sky,10.8,,9.41,11.83,1017,76,10000.0,0.0,0,0.0,0,1732536042,1732571621
Boise,-116.2035,43.6135,801,Clouds,few clouds,9.57,,7.33,10.3,1016,45,10000.0,4.63,130,0.0,20,1732546335,1732579929
San Bernardino,-116.1675,34.6667,802,Clouds,scattered clouds,17.88,,17.88,17.88,1017,32,10000.0,3.79,127,0.0,33,1732544928,1732581318
Spokane,-117.3677,47.6166,804,Clouds,overcast clouds,5.65,,4.45,6.23,1016,79,10000.0,3.09,160,0.0,100,1732547399,1732579424
Des Moines,-93.6091,41.6005,800,Clear,clear sky,0.1,,-0.93,0.65,1024,61,10000.0,4.12,300,0.0,0,1732540557,1732574859
Modesto,-120.9969,37.6391,804,Clouds,overcast clouds,15.11,,13.77,15.68,1017,72,10000.0,5.66,150,0.0,100,1732546511,1732582055
Fayetteville,-78.8784,35.0527,800,Clear,clear sky,16.98,,14.72,18.29,1018,60,10000.0,3.6,170,0.0,0,1732536026,1732572318
Tacoma,-122.4443,47.2529,804,Clouds,overcast clouds,8.59,,7.63,9.59,1015,92,10000.0,1.54,50,0.0,100,1732548541,1732580719
Shreveport,-93.7502,32.5251,803,Clouds,broken clouds,19.17,,17.78,20.0,1019,65,10000.0,9.77,320,0.0,75,1732539260,1732576224
Fontana,-117.4351,34.0922,803,Clouds,broken clouds,19.27,,17.61,20.98,1020,47,10000.0,1.54,0,0.0,75,1732545155,1732581700
Oxnard,-119.177,34.1975,803,Clouds,broken clouds,18.32,,17.25,20.46,1020,62,10000.0,4.12,180,0.0,75,1732545587,1732582104
Moreno Valley,-117.2306,33.9375,803,Clouds,broken clouds,19.66,,18.49,21.2,1019,46,10000.0,2.06,350,0.0,75,1732545085,1732581672
Akron,-81.519,41.0814,804,Clouds,overcast clouds,11.22,,10.44,11.58,1010,80,10000.0,3.09,190,0.0,100,1732537567,1732572045
Yonkers,-73.8988,40.9312,800,Clear,clear sky,7.73,,5.8,10.59,1017,55,10000.0,1.54,210,0.0,0,1732535712,1732570241
Little Rock,-92.2896,34.7465,804,Clouds,overcast clouds,13.41,,12.08,14.0,1020,74,10000.0,8.23,330,0.0,100,1732539205,1732575578
Huntington Beach,-117.9992,33.6603,803,Clouds,broken clouds,21.11,,18.36,23.14,1019,53,10000.0,3.13,283,0.0,75,1732545233,1732581893
Augusta,-81.9748,33.471,800,Clear,clear sky,16.4,,15.01,18.25,1020,80,10000.0,1.54,200,0.0,0,1732536556,1732573274
Amarillo,-101.8313,35.222,800,Clear,clear sky,6.49,,5.61,6.88,1027,54,10000.0,4.12,30,0.0,0,1732541562,1732577802
Mobile,-88.2,30.7835,801,Clouds,few clouds,20.02,,19.25,21.03,1020,75,10000.0,2.06,190,0.0,20,1732537707,1732575112
Grand Rapids,-85.6681,42.9634,701,Mist,mist,6.82,,5.96,7.44,1010,95,4828.0,3.09,280,0.0,100,1732538884,1732572720
Salt Lake City,-111.8911,40.7608,803,Clouds,broken clouds,5.99,,4.69,6.89,1019,44,10000.0,6.17,160,0.0,75,1732544809,1732579385
Tallahassee,-84.2807,30.4383,800,Clear,clear sky,18.48,,17.7,18.88,1022,87,10000.0,0.45,133,0.0,9,1732536723,1732574215
Huntsville,-86.5861,34.7304,804,Clouds,overcast clouds,20.36,,19.53,21.14,1016,76,10000.0,4.63,190,0.0,100,1732537833,1732574212
Grand Prairie,-96.9978,32.746,804,Clouds,overcast clouds,10.64,,9.96,11.27,1024,66,10000.0,8.23,340,0.0,100,1732540069,1732576974
Knoxville,-83.9207,35.9606,804,Clouds,overcast clouds,16.53,,14.05,18.27,1017,78,10000.0,4.12,220,0.0,100,1732537363,1732573401
Worcester,-71.8328,42.3334,802,Clouds,scattered clouds,3.75,,1.92,5.2,1016,67,10000.0,1.86,279,0.0,39,1732535451,1732569510
Newport News,-76.428,36.9788,801,Clouds,few clouds,11.6,,10.98,14.01,1018,84,10000.0,0.0,0,0.0,20,1732535710,1732571458
Brownsville,-97.4975,25.9018,800,Clear,clear sky,27.72,,26.1,27.97,1017,60,10000.0,4.63,190,0.0,0,1732539363,1732577920
Overland Park,-94.6708,38.9822,800,Clear,clear sky,2.82,,1.58,3.95,1026,49,10000.0,5.14,330,0.0,0,1732540391,1732575535
Santa Clarita,-118.5426,34.3917,801,Clouds,few clouds,18.42,,16.88,19.64,1019,52,10000.0,2.57,160,0.0,20,1732545461,1732581926
Providence,-71.4128,41.824,802,Clouds,scattered clouds,4.27,,2.99,6.32,1016,69,10000.0,2.64,289,0.0,40,1732535263,1732569496
Garden Grove,-117.9415,33.7739,803,Clouds,broken clouds,22.02,,19.07,23.51,1019,48,10000.0,2.06,320,0.0,75,1732545234,1732581864
Chattanooga,-85.3097,35.0456,804,Clouds,overcast clouds,19.36,,17.82,19.99,1017,78,10000.0,0.45,179,0.0,99,1732537570,1732573862
Oceanside,-117.3795,33.1959,800,Clear,clear sky,20.15,,18.42,22.38,1019,53,10000.0,4.12,270,0.0,0,1732545022,1732581806
Jackson,-122.8345,42.4165,804,Clouds,overcast clouds,8.47,,8.19,8.93,1013,84,10000.0,1.54,320,0.0,100,1732547716,1732581732
Fort Lauderdale,-80.1434,26.1223,801,Clouds,few clouds,22.92,,21.67,24.0,1021,67,10000.0,2.57,50,0.0,20,1732535221,1732573731
Santa Rosa,-122.7144,38.4405,804,Clouds,overcast clouds,12.9,,11.85,13.73,1016,88,10000.0,0.89,82,0.0,100,1732547043,1732582347
Rancho Cucamonga,-117.5931,34.1064,803,Clouds,broken clouds,18.22,,17.4,20.68,1020,51,10000.0,3.6,100,0.0,75,1732545195,1732581736
Port St. Lucie,-80.3503,27.2939,800,Clear,clear sky,21.08,,18.34,21.66,1022,81,10000.0,1.34,356,0.0,0,1732535404,1732573646
Tempe,-111.9093,33.4148,802,Clouds,scattered clouds,23.82,,22.68,24.88,1018,25,10000.0,1.54,0,0.0,40,1732543738,1732580465
Ontario,-117.6509,34.0633,803,Clouds,broken clouds,18.8,,17.99,21.06,1020,51,10000.0,3.6,100,0.0,75,1732545203,1732581756
Vancouver,-122.6615,45.6387,804,Clouds,overcast clouds,10.0,,8.8,10.83,1014,83,10000.0,2.57,90,0.0,100,1732548267,1732581098
Cape Coral,-81.9495,26.5629,800,Clear,clear sky,21.86,,20.55,22.22,1021,74,10000.0,1.54,60,0.0,0,1732535704,1732574114
Sioux Falls,-96.7003,43.55,800,Clear,clear sky,-3.64,,-4.45,-3.08,1026,64,10000.0,3.6,300,0.0,0,1732541639,1732575262
Pembroke Pines,-80.2239,26.0032,800,Clear,clear sky,22.96,,21.66,24.0,1021,71,10000.0,3.09,60,0.0,0,1732535226,1732573763
Elk Grove,-121.3716,38.4088,701,Mist,mist,12.8,,11.76,13.41,1016,86,10000.0,3.09,140,0.0,100,1732546716,1732582029
Salem,-123.0351,44.9429,803,Clouds,broken clouds,10.18,,9.49,11.4,1014,81,10000.0,1.79,166,0.0,64,1732548222,1732581322
Lancaster,-76.2499,40.2504,804,Clouds,overcast clouds,10.39,,9.84,10.84,1016,68,10000.0,3.6,170,0.0,100,1732536166,1732570916
Corona,-117.5664,33.8753,804,Clouds,overcast clouds,20.95,,19.15,22.34,1019,46,10000.0,0.89,283,0.0,100,1732545157,1732581761
Eugene,-123.0867,44.0521,803,Clouds,broken clouds,8.85,,8.47,9.33,1014,90,10000.0,3.09,150,0.0,75,1732548068,1732581501
McKinney,-96.6153,33.1976,804,Clouds,overcast clouds,10.25,,9.5,10.88,1024,68,10000.0,5.66,340,0.0,100,1732540036,1732576823
Fort Collins,-105.0844,40.5853,800,Clear,clear sky,5.52,,4.31,6.35,1020,44,10000.0,1.34,96,0.0,9,1732543145,1732577780
Palmdale,-118.1165,34.5794,801,Clouds,few clouds,17.17,,14.73,17.91,1018,55,10000.0,7.2,250,0.0,20,1732545384,1732581798
Hayward,-122.0808,37.6688,804,Clouds,overcast clouds,12.57,,11.58,13.53,1015,93,10000.0,1.79,180,0.0,100,1732546775,1732582310
Alexandria,-77.0469,38.8048,803,Clouds,broken clouds,12.17,,10.36,13.49,1016,67,10000.0,2.06,190,0.0,75,1732536131,1732571334
Lakewood,-105.0814,39.7047,801,Clouds,few clouds,6.09,,4.23,7.21,1019,48,10000.0,2.68,148,0.0,18,1732543004,1732577920
Hollywood,-118.3267,34.0983,721,Haze,haze,19.28,,17.08,20.89,1020,57,10000.0,4.12,250,0.0,40,1732545370,1732581913
Pasadena,-95.2091,29.6911,800,Clear,clear sky,26.48,,25.53,27.29,1017,70,10000.0,4.12,230,0.0,0,1732539256,1732576928
Sunnyvale,-122.0363,37.3688,300,Drizzle,light intensity drizzle,13.35,,11.59,14.57,1015,92,8047.0,6.71,197,0.0,100,1732546720,1732582344
Macon,-88.9668,39.8667,804,Clouds,overcast clouds,7.03,,6.25,7.03,1018,70,10000.0,7.72,290,0.0,100,1732539159,1732574028
Pomona,-117.7523,34.0553,804,Clouds,overcast clouds,19.1,,18.15,21.36,1020,51,10000.0,3.6,100,0.0,100,1732545226,1732581781
Escondido,-117.0864,33.1192,800,Clear,clear sky,20.4,,17.29,22.38,1019,53,10000.0,3.09,0,0.0,0,1732544942,1732581746
Killeen,-97.7278,31.1171,800,Clear,clear sky,11.91,,10.75,12.34,1023,62,10000.0,7.2,340,0.0,0,1732540037,1732577357
Naperville,-88.1473,41.7859,804,Clouds,overcast clouds,5.98,,4.92,6.89,1016,83,10000.0,3.13,309,0.0,100,1732539276,1732573518
Joliet,-88.0817,41.525,804,Clouds,overcast clouds,6.87,,5.67,7.53,1016,87,10000.0,7.72,300,0.0,100,1732539217,1732573546
Bellevue,-122.2007,47.6104,300,Drizzle,light intensity drizzle,8.34,,7.09,9.34,1015,93,10000.0,1.54,350,0.0,100,1732548558,1732580585
Rockford,-89.094,42.2711,804,Clouds,overcast clouds,3.95,,3.22,4.08,1017,81,10000.0,7.72,300,0.0,100,1732539586,1732573662
Savannah,-81.0998,32.0835,800,Clear,clear sky,16.6,,15.59,17.19,1021,77,10000.0,2.57,160,0.0,0,1732536166,1732573245
Paterson,-74.1718,40.9168,802,Clouds,scattered clouds,7.6,,5.85,10.41,1017,61,10000.0,1.54,210,0.0,40,1732535775,1732570309
Torrance,-118.3406,33.8359,721,Haze,haze,18.35,,16.5,20.94,1020,66,10000.0,4.12,250,0.0,40,1732545338,1732581952
Bridgeport,-73.2048,41.167,800,Clear,clear sky,6.88,,5.25,8.54,1017,57,10000.0,0.0,0,0.0,0,1732535584,1732570036
McAllen,-98.23,26.2034,800,Clear,clear sky,28.46,,27.9,30.06,1016,57,10000.0,2.24,155,0.0,1,1732539573,1732578062
Mesquite,-96.5992,32.7668,803,Clouds,broken clouds,10.73,,10.09,11.4,1024,69,10000.0,4.63,320,0.0,75,1732539976,1732576876
Syracuse,-76.1474,43.0481,803,Clouds,broken clouds,3.98,,2.73,5.08,1015,79,10000.0,1.54,80,0.0,75,1732536612,1732570420
Midland,-102.0779,31.9974,800,Clear,clear sky,10.92,,10.35,11.14,1025,49,10000.0,5.66,60,0.0,0,1732541192,1732578290
Murfreesboro,-86.3903,35.8456,804,Clouds,overcast clouds,19.93,,18.81,20.66,1015,79,10000.0,3.09,210,0.0,100,1732537940,1732574010
Miramar,-80.2323,25.9873,800,Clear,clear sky,22.99,,21.67,24.01,1021,71,10000.0,3.09,60,0.0,0,1732535227,1732573767
Dayton,-84.1916,39.7589,300,Drizzle,light intensity drizzle,15.04,,14.08,15.78,1010,89,10000.0,5.14,200,0.34,100,1732537995,1732572900
Fullerton,-117.9253,33.8703,801,Clouds,few clouds,21.84,,19.63,23.22,1019,49,10000.0,2.24,360,0.0,20,1732545243,1732581848
Olathe,-94.8191,38.8814,800,Clear,clear sky,2.74,,1.61,4.06,1026,50,10000.0,6.17,330,0.0,0,1732540411,1732575586
Orange,-117.7675,33.7,803,Clouds,broken clouds,22.2,,19.42,23.46,1019,46,10000.0,1.54,270,0.0,75,1732545182,1732581833
Thornton,-104.9719,39.868,800,Clear,clear sky,6.62,,5.05,7.92,1019,38,10000.0,3.09,130,0.0,0,1732543003,1732577868
Roseville,-121.288,38.7521,804,Clouds,overcast clouds,11.98,,11.19,12.92,1016,89,10000.0,4.63,140,0.0,100,1732546748,1732581957
Denton,-97.1336,33.2001,804,Clouds,overcast clouds,9.99,,9.16,10.61,1025,69,10000.0,4.47,337,0.0,100,1732540161,1732576947
Waco,-97.1467,31.5493,802,Clouds,scattered clouds,11.11,,10.84,11.29,1023,71,10000.0,7.72,330,0.0,40,1732539951,1732577163
Surprise,-112.3332,33.6306,800,Clear,clear sky,23.55,,22.6,24.83,1018,25,10000.0,2.06,40,0.0,0,1732543868,1732580538
Carrollton,-96.8903,32.9537,804,Clouds,overcast clouds,10.55,,9.67,11.34,1024,68,10000.0,8.23,340,0.0,100,1732540070,1732576921
West Valley City,-112.0011,40.6916,800,Clear,clear sky,5.9,,4.74,6.84,1019,45,10000.0,6.17,160,0.0,0,1732544824,1732579422
Visalia,-119.2921,36.3302,804,Clouds,overcast clouds,14.24,,13.9,15.01,1019,90,10000.0,3.6,80,0.0,100,1732545911,1732581836
Hampton,-76.3452,37.0299,801,Clouds,few clouds,11.76,,11.0,14.03,1018,83,10000.0,0.0,0,0.0,20,1732535697,1732571430
Gainesville,-82.3248,29.6516,800,Clear,clear sky,16.61,,15.6,17.27,1022,69,10000.0,0.0,0,0.0,0,1732536157,1732573841
Warren,-84.1666,39.4334,804,Clouds,overcast clouds,14.64,,14.03,15.4,1010,91,10000.0,4.12,200,0.0,100,1732537938,1732572945
Coral Springs,-80.2706,26.2712,800,Clear,clear sky,22.35,,21.66,23.32,1021,72,10000.0,2.06,50,0.0,0,1732535268,1732573744
Cedar Rapids,-91.6441,42.0083,800,Clear,clear sky,-0.11,,-0.97,0.14,1022,74,10000.0,8.23,310,0.0,0,1732540154,1732574319
Round Rock,-97.6789,30.5083,800,Clear,clear sky,14.25,,12.75,16.28,1022,59,10000.0,9.26,10,0.0,0,1732539949,1732577421
Sterling Heights,-83.0302,42.5803,804,Clouds,overcast clouds,9.01,,8.23,10.05,1008,87,10000.0,2.57,140,0.0,100,1732538183,1732572154
Kent,-85.55,43.0334,701,Mist,mist,6.98,,6.1,7.42,1010,94,4828.0,3.09,280,0.0,100,1732538868,1732572679
Santa Clara,-121.9552,37.3541,804,Clouds,overcast clouds,14.01,,12.08,15.25,1016,90,10000.0,6.71,197,0.0,100,1732546699,1732582327
New Haven,-72.9329,41.4001,800,Clear,clear sky,5.22,,3.71,6.87,1017,61,10000.0,0.89,329,0.0,0,1732535557,1732569932
Stamford,-73.5387,41.0534,800,Clear,clear sky,7.26,,5.49,8.93,1017,64,10000.0,0.0,0,0.0,0,1732535645,1732570135
Concord,-122.0311,37.978,701,Mist,mist,12.6,,11.83,13.62,1016,91,4023.0,2.57,140,0.13,100,1732546809,1732582252
Elizabeth,-74.2107,40.664,803,Clouds,broken clouds,9.45,,7.56,11.1,1017,56,10000.0,3.6,240,0.0,75,1732535743,1732570360
Athens,-83.3779,33.9609,801,Clouds,few clouds,16.99,,16.36,17.16,1019,73,10000.0,0.0,0,0.0,20,1732536958,1732573546
Thousand Oaks,-118.8376,34.1706,804,Clouds,overcast clouds,18.66,,16.82,20.1,1020,54,10000.0,1.34,313,0.0,95,1732545502,1732582026
Lafayette,-92.0668,30.2335,804,Clouds,overcast clouds,22.97,,21.97,23.35,1018,84,2414.0,3.09,240,0.0,100,1732538568,1732576108
Simi Valley,-118.7815,34.2695,804,Clouds,overcast clouds,19.14,,17.23,20.36,1020,54,10000.0,2.68,277,0.0,97,1732545502,1732581999
Topeka,-95.678,39.0483,800,Clear,clear sky,3.68,,2.72,4.21,1027,49,10000.0,5.14,330,0.0,0,1732540643,1732575767
Norman,-97.4395,35.2226,800,Clear,clear sky,7.13,,6.62,8.02,1027,57,10000.0,7.72,320,0.0,0,1732540507,1732576748
Fargo,-96.7898,46.8772,800,Clear,clear sky,-8.97,,-9.47,-8.34,1025,72,10000.0,5.66,290,0.0,0,1732542301,1732574643
Wilmington,-77.9447,34.2257,800,Clear,clear sky,15.06,,13.29,16.62,1020,74,10000.0,3.6,200,0.0,0,1732535689,1732572207
Abilene,-99.7331,32.4487,800,Clear,clear sky,8.34,,7.19,9.15,1026,61,10000.0,6.69,10,0.0,0,1732540687,1732577669
Odessa,-102.3676,31.8457,800,Clear,clear sky,11.34,,10.12,12.14,1024,48,10000.0,5.66,50,0.0,0,1732541243,1732578378
Pearland,-95.286,29.5636,800,Clear,clear sky,26.19,,25.5,27.25,1017,72,10000.0,1.54,220,0.0,0,1732539259,1732576962
Victorville,-117.2912,34.5361,803,Clouds,broken clouds,16.6,,15.95,16.99,1018,57,10000.0,0.45,159,0.0,58,1732545180,1732581606
Vallejo,-122.2566,38.1041,804,Clouds,overcast clouds,12.77,,11.63,13.6,1016,91,10000.0,4.63,90,0.0,100,1732546882,1732582288
Ann Arbor,-83.7409,42.2776,804,Clouds,overcast clouds,8.64,,7.93,9.45,1008,80,10000.0,0.0,0,0.0,100,1732538302,1732572377
Berkeley,-122.2728,37.8716,804,Clouds,overcast clouds,12.69,,11.47,13.44,1016,87,10000.0,0.45,292,0.0,100,1732546852,1732582326
Allentown,-75.4902,40.6084,804,Clouds,overcast clouds,9.58,,8.43,10.61,1016,70,10000.0,0.0,0,0.0,100,1732536041,1732570676
Richardson,-96.7297,32.9482,804,Clouds,overcast clouds,10.39,,9.52,11.14,1024,69,10000.0,6.69,330,0.0,100,1732540031,1732576884
Arvada,-105.0875,39.8028,801,Clouds,few clouds,6.58,,5.04,7.71,1019,43,10000.0,2.68,148,0.0,16,1732543021,1732577906
Roseville,-121.288,38.7521,804,Clouds,overcast clouds,11.98,,11.19,12.92,1016,89,10000.0,4.63,140,0.0,100,1732546748,1732581957
Beaumont,-94.1019,30.0861,802,Clouds,scattered clouds,25.07,,24.02,25.99,1017,65,10000.0,3.09,210,0.0,40,1732539038,1732576615
Round Rock,-97.6789,30.5083,800,Clear,clear sky,14.25,,12.75,16.28,1022,59,10000.0,9.26,10,0.0,0,1732539949,1732577421
Evansville,-87.5558,37.9748,701,Mist,mist,11.71,,10.6,12.33,1016,87,10000.0,5.66,310,0.0,100,1732538529,1732573981
Independence,-94.4155,39.0911,800,Clear,clear sky,3.1,,1.67,3.94,1026,44,10000.0,4.63,310,0.0,0,1732540346,1732575457
Fairfield,-73.3162,41.2668,800,Clear,clear sky,5.12,,4.13,6.3,1017,63,10000.0,0.0,0,0.0,0,1732535627,1732570046
Provo,-111.6585,40.2338,803,Clouds,broken clouds,3.63,,2.9,4.95,1020,57,10000.0,2.57,260,0.0,75,1732544668,1732579414
Clearwater,-82.8001,27.9659,800,Clear,clear sky,18.28,,17.08,20.52,1022,68,10000.0,4.47,132,0.0,0,1732536071,1732574156
Palm Bay,-80.5887,28.0345,800,Clear,clear sky,19.11,,17.8,21.03,1022,83,10000.0,2.06,30,0.0,0,1732535548,1732573617
West Jordan,-111.9391,40.6097,800,Clear,clear sky,5.5,,4.11,6.71,1019,46,10000.0,6.17,160,0.0,0,1732544796,1732579421
Pueblo,-104.6091,38.2545,800,Clear,clear sky,5.56,,5.27,6.43,1023,61,10000.0,5.14,130,0.0,0,1732542667,1732578031
Lowell,-71.3162,42.6334,800,Clear,clear sky,4.95,,2.97,6.22,1016,64,10000.0,3.09,270,0.0,0,1732535379,1732569334
Ventura,-119.0176,34.4667,804,Clouds,overcast clouds,10.47,,8.97,11.28,1020,66,10000.0,0.89,139,0.0,100,1732545586,1732582029
Gresham,-122.4315,45.4982,500,Rain,light rain,9.33,,8.19,10.62,1014,85,10000.0,3.09,80,0.65,100,1732548184,1732581070
High Point,-80.0053,35.9557,801,Clouds,few clouds,12.24,,10.48,14.25,1017,67,10000.0,0.89,249,0.0,12,1732536422,1732572462
Billings Metropolitan Area,-108.5007,45.7833,803,Clouds,broken clouds,-5.17,,-6.58,-4.28,1021,79,10000.0,0.0,0,0.0,75,1732544894,1732577672
Manchester,-71.4548,42.9956,800,Clear,clear sky,3.14,,1.68,5.04,1016,73,10000.0,0.89,214,0.0,9,1732535476,1732569304
El Monte,-118.0276,34.0686,804,Clouds,overcast clouds,20.26,,19.08,22.19,1019,54,10000.0,1.77,261,0.0,89,1732545294,1732581846
South Bend,-86.25,41.6834,701,Mist,mist,9.08,,8.11,9.56,1012,92,6437.0,7.72,310,0.0,100,1732538803,1732573080
Everett,-122.2021,47.979,804,Clouds,overcast clouds,7.57,,6.67,8.69,1015,96,8188.0,0.94,280,0.0,100,1732548638,1732580506
Pompano Beach,-80.1248,26.2379,800,Clear,clear sky,22.95,,21.09,23.98,1021,68,10000.0,2.57,60,0.0,0,1732535229,1732573713
Daly City,-122.4619,37.7058,701,Mist,mist,11.9,,11.02,12.9,1016,93,2414.0,3.13,15,0.0,100,1732546872,1732582396
Norwalk,-118.0817,33.9022,801,Clouds,few clouds,21.0,,17.64,22.85,1019,51,10000.0,2.06,320,0.0,20,1732545285,1732581881
Burbank,-118.309,34.1808,802,Clouds,scattered clouds,19.29,,17.5,20.71,1020,52,10000.0,2.57,160,0.0,40,1732545377,1732581898
Rialto,-117.3703,34.1064,803,Clouds,broken clouds,19.59,,17.31,20.91,1020,46,10000.0,1.34,360,0.0,75,1732545141,1732581683
San Mateo,-122.3511,37.4499,701,Mist,mist,9.39,,8.77,10.72,1015,95,2414.0,8.23,170,0.0,100,1732546808,1732582408
Lewisville,-96.9942,33.0462,804,Clouds,overcast clouds,10.44,,9.66,11.24,1024,68,10000.0,8.23,340,0.0,100,1732540107,1732576934
Lakeland,-81.9498,28.0395,800,Clear,clear sky,18.87,,17.1,20.97,1021,75,10000.0,0.0,0,0.0,0,1732535875,1732573943
Erie,-78.6664,42.7667,804,Clouds,overcast clouds,8.74,,7.14,9.42,1012,77,10000.0,0.89,184,0.0,100,1732537168,1732571074
Tyler,-95.3011,32.3513,804,Clouds,overcast clouds,12.18,,11.72,13.03,1022,74,10000.0,4.63,330,0.0,100,1732539610,1732576618
Pearland,-95.286,29.5636,800,Clear,clear sky,26.19,,25.5,27.25,1017,72,10000.0,1.54,220,0.0,0,1732539259,1732576962
Temecula,-117.1484,33.4936,800,Clear,clear sky,21.73,,21.26,22.7,1019,42,10000.0,2.57,230,0.0,0,1732545006,1732581711
Meridian,-116.3915,43.6121,803,Clouds,broken clouds,8.82,,6.57,10.19,1016,52,10000.0,3.6,140,0.0,75,1732546380,1732579975
Visalia,-119.2921,36.3302,804,Clouds,overcast clouds,14.24,,13.9,15.01,1019,90,10000.0,3.6,80,0.0,100,1732545911,1732581836
Westminster,-105.0372,39.8367,800,Clear,clear sky,6.52,,5.0,7.64,1019,41,10000.0,3.09,130,0.0,0,1732543014,1732577889
Santa Barbara,-120.0343,34.7333,804,Clouds,overcast clouds,15.18,,14.57,15.31,1019,51,10000.0,3.09,110,0.0,100,1732545866,1732582237
Green Bay,-88.0198,44.5192,500,Rain,light rain,1.78,,1.53,2.17,1013,96,10000.0,5.14,280,0.25,100,1732539731,1732573001
Cedar Park,-97.8203,30.5052,800,Clear,clear sky,14.2,,12.61,16.34,1022,60,10000.0,5.66,350,0.0,0,1732539983,1732577455
Lynchburg,-79.1423,37.4138,803,Clouds,broken clouds,12.8,,12.71,14.0,1016,63,10000.0,0.0,0,0.0,75,1732536425,1732572045
Tuscaloosa,-87.5692,33.2098,800,Clear,clear sky,21.27,,19.92,21.88,1018,70,10000.0,2.57,190,0.0,0,1732537865,1732574651
Orem,-111.6946,40.2969,803,Clouds,broken clouds,3.4,,2.46,4.52,1019,56,10000.0,2.57,260,0.0,75,1732544687,1732579413
Perris,-117.2287,33.7825,803,Clouds,broken clouds,20.91,,19.26,21.83,1019,39,10000.0,2.06,350,0.0,75,1732545064,1732581692
Dearborn,-83.1763,42.3223,804,Clouds,overcast clouds,10.02,,8.62,10.59,1008,87,10000.0,2.57,190,0.0,100,1732538174,1732572233
Hemet,-116.972,33.7475,803,Clouds,broken clouds,20.85,,19.5,21.54,1019,38,10000.0,2.68,22,0.0,70,1732544998,1732581635
Fargo,-96.7898,46.8772,800,Clear,clear sky,-8.97,,-9.47,-8.34,1025,72,10000.0,5.66,290,0.0,0,1732542301,1732574643
Muncie,-85.3864,40.1934,804,Clouds,overcast clouds,12.85,,11.92,13.41,1012,91,10000.0,5.36,279,0.0,100,1732538351,1732573117
Casper,-106.3131,42.8666,800,Clear,clear sky,0.84,,-0.11,0.96,1021,57,10000.0,7.2,210,0.0,0,1732543826,1732577690
Santa Fe,-105.9506,35.5167,803,Clouds,broken clouds,9.18,,7.92,10.18,1021,38,10000.0,0.45,232,0.0,78,1732542592,1732578750
Wichita Falls,-98.4934,33.9137,800,Clear,clear sky,9.98,,9.12,10.08,1026,58,10000.0,7.2,360,0.0,0,1732540582,1732577179
Albany,-73.9662,42.6001,803,Clouds,broken clouds,1.92,,0.47,3.13,1017,73,10000.0,1.24,262,0.0,71,1732536010,1732569976
Bend,-121.3153,44.0582,803,Clouds,broken clouds,2.94,,1.9,3.54,1015,91,10000.0,0.89,171,0.0,75,1732547644,1732581074
Woodbridge,-74.2846,40.5576,802,Clouds,scattered clouds,9.1,,7.68,11.1,1017,59,10000.0,2.57,220,0.0,40,1732535743,1732570395
Largo,-82.7873,27.9095,800,Clear,clear sky,18.69,,17.75,20.61,1022,67,10000.0,4.47,132,0.0,0,1732536061,1732574160
West Haven,-72.9471,41.2706,800,Clear,clear sky,6.25,,4.85,7.95,1017,59,10000.0,0.0,0,0.0,0,1732535539,1732569957
Springdale,-94.1288,36.1867,800,Clear,clear sky,5.35,,4.56,6.07,1024,76,10000.0,2.57,330,0.0,0,1732539847,1732575819
Kokomo,-86.1336,40.4864,804,Clouds,overcast clouds,10.5,,9.38,11.03,1013,88,10000.0,6.17,290,0.0,100,1732538578,1732573249
Logan,-111.8344,41.7355,800,Clear,clear sky,1.82,,1.09,3.39,1022,62,10000.0,0.45,324,0.0,0,1732544957,1732579209
Bartlesville,-95.9808,36.7473,800,Clear,clear sky,6.77,,6.57,6.97,1027,44,10000.0,2.57,350,0.0,0,1732540372,1732576183
Birmingham,-86.8025,33.5207,801,Clouds,few clouds,15.46,,14.52,16.88,1019,68,10000.0,4.63,350,0.0,20,1732624176,1732660810
Montgomery,-77.1997,39.1501,800,Clear,clear sky,15.24,,14.1,16.42,1015,44,10000.0,6.69,310,0.0,0,1732622684,1732657693
Hoover,-86.8114,33.4054,801,Clouds,few clouds,15.37,,14.63,16.34,1019,70,10000.0,4.63,350,0.0,20,1732624163,1732660828
Chandler,-111.8412,33.3062,800,Clear,clear sky,24.46,,23.28,26.37,1016,25,10000.0,2.06,0,0.0,0,1732630161,1732666847
Peoria,-89.7668,40.7667,800,Clear,clear sky,4.64,,3.97,5.69,1022,50,10000.0,2.57,240,0.0,0,1732625962,1732660448
Yuma,-114.6244,32.7253,800,Clear,clear sky,22.8,,21.43,24.93,1015,31,10000.0,0.0,0,0.0,0,1732630752,1732667592
Avondale,-112.3496,33.4356,803,Clouds,broken clouds,23.48,,22.83,25.37,1016,26,10000.0,2.24,132,0.0,75,1732630300,1732666952
Fort Smith,-94.3986,35.3859,800,Clear,clear sky,13.33,,11.81,14.02,1021,34,10000.0,3.13,65,0.0,0,1732626256,1732662377
Jonesboro,-90.7043,35.8423,800,Clear,clear sky,8.82,,7.74,8.87,1022,45,10000.0,2.06,80,0.0,0,1732625434,1732661427
Long Beach,-118.1892,33.767,802,Clouds,scattered clouds,19.61,,17.53,21.16,1019,72,10000.0,4.12,280,0.0,40,1732631747,1732668309
Salinas,-121.6555,36.6777,804,Clouds,overcast clouds,12.64,,11.57,13.8,1020,94,10000.0,0.0,0,0.0,100,1732632987,1732668733
Downey,-118.1326,33.94,721,Haze,haze,20.13,,17.82,21.18,1019,56,10000.0,2.06,250,0.0,40,1732631757,1732668272
Costa Mesa,-117.9187,33.6411,803,Clouds,broken clouds,21.15,,19.55,22.76,1019,59,10000.0,1.79,213,0.0,75,1732631665,1732668261
Inglewood,-118.3531,33.9617,721,Haze,haze,18.67,,17.05,20.46,1019,74,10000.0,4.12,280,0.0,20,1732631813,1732668322
West Covina,-117.939,34.0686,803,Clouds,broken clouds,20.17,,18.91,21.59,1019,55,10000.0,0.45,290,0.0,75,1732631728,1732668208
Carlsbad,-117.3506,33.1581,800,Clear,clear sky,20.4,,18.45,23.69,1019,56,10000.0,3.6,230,0.0,0,1732631464,1732668189
Murrieta,-117.2139,33.5539,804,Clouds,overcast clouds,21.96,,20.68,22.89,1018,47,10000.0,2.24,227,0.0,90,1732631484,1732668103
Antioch,-121.8058,38.0049,804,Clouds,overcast clouds,14.74,,13.29,15.55,1020,77,10000.0,0.89,249,0.0,100,1732633220,1732668572
Santa Maria,-120.4357,34.953,804,Clouds,overcast clouds,16.15,,15.14,17.02,1019,97,10000.0,0.0,0,0.0,100,1732632449,1732668686
El Cajon,-116.9625,32.7948,800,Clear,clear sky,22.1,,18.23,23.69,1019,46,10000.0,3.09,300,0.0,0,1732631323,1732668144
Compton,-118.2201,33.8959,721,Haze,haze,19.49,,17.32,21.06,1019,70,10000.0,4.12,280,0.0,40,1732631772,1732668299
Clovis,-119.7029,36.8252,500,Rain,light rain,12.28,,11.16,13.34,1019,91,10000.0,5.14,320,0.42,100,1732632540,1732668243
South Gate,-118.212,33.9547,721,Haze,haze,19.55,,17.35,20.98,1019,69,10000.0,3.09,230,0.0,20,1732631778,1732668289
Vista,-117.2425,33.2,800,Clear,clear sky,21.32,,18.35,23.45,1019,51,10000.0,3.6,230,0.0,0,1732631444,1732668158
Mission Viejo,-117.672,33.6,803,Clouds,broken clouds,20.63,,17.29,22.64,1019,59,10000.0,2.68,287,0.0,84,1732631600,1732668207
Vacaville,-121.9877,38.3566,800,Clear,clear sky,14.18,,13.12,14.73,1020,76,10000.0,3.6,260,0.0,0,1732633318,1732668562
Carson,-118.282,33.8314,721,Haze,haze,19.18,,17.49,21.0,1019,72,10000.0,4.12,280,0.0,75,1732631778,1732668322
Hesperia,-117.3009,34.4264,804,Clouds,overcast clouds,16.74,,12.23,17.49,1018,49,10000.0,5.36,1,0.0,88,1732631623,1732668006
Redding,-122.3917,40.5865,800,Clear,clear sky,13.49,,12.12,14.23,1019,59,10000.0,1.54,0,0.0,0,1732633768,1732668305
Santa Monica,-118.4912,34.0195,721,Haze,haze,18.08,,17.03,20.06,1019,77,10000.0,3.09,230,0.0,100,1732631854,1732668347
Chico,-121.8375,39.7285,802,Clouds,scattered clouds,13.59,,13.05,13.92,1019,76,10000.0,2.57,150,0.0,40,1732633496,1732668311
Whittier,-118.0328,33.9792,804,Clouds,overcast clouds,20.21,,18.37,21.74,1019,57,10000.0,0.0,0,0.0,100,1732631738,1732668243
Newport Beach,-117.9289,33.6189,803,Clouds,broken clouds,20.96,,18.34,22.68,1019,62,10000.0,1.79,213,0.0,75,1732631665,1732668266
San Leandro,-122.1561,37.7249,721,Haze,haze,12.95,,11.85,14.39,1020,87,10000.0,2.06,170,0.0,100,1732633262,1732668698
Hawthorne,-118.3526,33.9164,721,Haze,haze,18.79,,17.1,20.56,1019,74,10000.0,4.12,280,0.0,20,1732631806,1732668328
San Marcos,-117.1661,33.1434,800,Clear,clear sky,21.23,,17.9,23.21,1019,51,10000.0,3.6,230,0.0,0,1732631418,1732668147
Citrus Heights,-121.2811,38.7071,804,Clouds,overcast clouds,13.54,,12.47,14.34,1020,85,10000.0,4.12,180,0.0,100,1732633202,1732668339
Alhambra,-118.127,34.0953,804,Clouds,overcast clouds,19.19,,18.25,20.24,1019,53,10000.0,0.0,0,0.0,100,1732631776,1732668250
Tracy,-121.4252,37.7397,804,Clouds,overcast clouds,15.43,,13.79,16.03,1020,74,10000.0,1.34,341,0.0,100,1732633089,1732668521
Livermore,-121.768,37.6819,804,Clouds,overcast clouds,12.95,,11.22,13.78,1020,85,10000.0,1.79,257,0.0,100,1732633163,1732668612
Buena Park,-117.9981,33.8675,803,Clouds,broken clouds,21.14,,19.43,22.82,1019,56,10000.0,2.06,190,0.0,75,1732631715,1732668249
Merced,-120.7516,37.1666,804,Clouds,overcast clouds,13.89,,12.91,14.19,1020,89,10000.0,1.22,207,0.0,100,1732632842,1732668444
Chino,-117.6889,34.0122,803,Clouds,broken clouds,20.38,,19.37,21.61,1019,53,10000.0,2.57,260,0.0,75,1732631660,1732668156
Menifee,-117.1464,33.7284,803,Clouds,broken clouds,21.45,,19.89,22.42,1018,44,10000.0,1.34,219,0.0,75,1732631491,1732668064
Lake Forest,-117.6892,33.647,803,Clouds,broken clouds,20.82,,17.76,22.51,1019,55,10000.0,2.68,287,0.0,75,1732631611,1732668205
Napa,-122.3344,38.4832,804,Clouds,overcast clouds,11.29,,10.18,12.41,1020,78,10000.0,2.71,254,0.0,100,1732633420,1732668626
Redwood City,-122.2364,37.4852,701,Mist,mist,12.76,,11.97,14.45,1020,93,8047.0,3.09,340,0.0,100,1732633246,1732668753
Bellflower,-118.117,33.8817,802,Clouds,scattered clouds,20.54,,17.91,21.77,1019,63,10000.0,2.06,250,0.0,40,1732631745,1732668276
Indio,-116.2156,33.7206,800,Clear,clear sky,22.17,,21.68,23.89,1016,37,10000.0,2.57,150,0.0,0,1732631267,1732667842
Tustin,-117.8262,33.7459,803,Clouds,broken clouds,21.65,,19.47,22.78,1019,53,10000.0,1.79,226,0.0,75,1732631657,1732668225
Baldwin Park,-117.9609,34.0853,804,Clouds,overcast clouds,19.81,,18.84,21.51,1020,53,10000.0,0.45,290,0.0,100,1732631735,1732668211
Chino Hills,-117.7589,33.9938,803,Clouds,broken clouds,20.11,,19.11,21.35,1019,53,10000.0,2.57,230,0.0,75,1732631674,1732668175
Mountain View,-122.0838,37.3861,804,Clouds,overcast clouds,13.43,,12.03,14.84,1020,87,10000.0,3.09,340,0.0,100,1732633194,1732668731
Alameda,-121.8844,37.5999,804,Clouds,overcast clouds,12.54,,11.49,13.88,1020,88,10000.0,1.54,310,0.0,100,1732633178,1732668652
Upland,-117.6484,34.0975,803,Clouds,broken clouds,19.29,,18.39,20.63,1020,56,10000.0,2.57,230,0.0,75,1732631662,1732668134
Folsom,-121.1761,38.678,804,Clouds,overcast clouds,13.3,,12.37,14.23,1020,87,10000.0,4.12,180,0.0,100,1732633172,1732668318
San Ramon,-121.978,37.7799,721,Haze,haze,12.71,,11.38,14.11,1020,87,10000.0,1.54,310,0.0,100,1732633228,1732668647
Pleasanton,-121.8747,37.6624,804,Clouds,overcast clouds,12.75,,11.51,13.8,1020,88,10000.0,1.54,310,0.0,100,1732633185,1732668640
Lynwood,-118.2115,33.9303,721,Haze,haze,19.51,,17.28,21.03,1019,69,10000.0,4.12,280,0.0,20,1732631774,1732668292
Union City,-122.0192,37.5958,804,Clouds,overcast clouds,12.93,,11.88,14.45,1020,89,10000.0,0.89,209,0.0,100,1732633210,1732668685
Apple Valley,-117.1859,34.5008,804,Clouds,overcast clouds,17.41,,13.62,17.96,1017,57,10000.0,9.68,200,0.0,90,1732631606,1732667968
Redlands,-117.1825,34.0556,804,Clouds,overcast clouds,18.42,,16.75,20.31,1019,61,10000.0,0.45,338,0.0,100,1732631544,1732668028
Turlock,-120.8466,37.4947,800,Clear,clear sky,14.58,,14.16,14.96,1020,81,10000.0,0.45,59,0.0,0,1732632913,1732668418
Manteca,-121.216,37.7974,801,Clouds,few clouds,15.64,,14.55,16.06,1020,74,10000.0,1.54,230,0.0,20,1732633047,1732668462
Milpitas,-121.9066,37.4283,804,Clouds,overcast clouds,14.12,,12.49,15.46,1020,81,10000.0,2.57,330,0.0,100,1732633158,1732668683
Redondo Beach,-118.3884,33.8492,721,Haze,haze,18.53,,17.1,20.08,1019,75,10000.0,4.12,280,0.0,75,1732631806,1732668346
Centennial,-104.8769,39.5792,803,Clouds,broken clouds,11.9,,10.36,12.73,1007,38,10000.0,2.57,20,0.0,75,1732629399,1732664266
Boulder,-105.3505,40.0833,800,Clear,clear sky,6.22,,3.97,8.09,1008,48,10000.0,4.02,230,0.0,0,1732629593,1732664299
Greeley,-104.7091,40.4233,804,Clouds,overcast clouds,8.18,,7.75,9.42,1008,45,10000.0,0.45,51,0.0,96,1732629494,1732664090
Longmont,-105.1019,40.1672,800,Clear,clear sky,10.05,,8.28,12.25,1007,45,10000.0,2.57,340,0.0,0,1732629547,1732664226
Loveland,-105.075,40.3978,800,Clear,clear sky,8.4,,7.23,10.67,1007,42,10000.0,3.09,100,0.0,0,1732629578,1732664182
Hartford,-72.7662,41.7668,804,Clouds,overcast clouds,5.7,,4.35,9.41,1009,91,10000.0,2.57,10,0.0,100,1732622047,1732656201
Waterbury,-73.0515,41.5582,801,Clouds,few clouds,9.62,,6.44,11.1,1009,91,10000.0,2.57,10,0.0,20,1732622080,1732656305
Danbury,-73.454,41.3948,803,Clouds,broken clouds,11.95,,10.57,12.88,1010,74,10000.0,0.89,311,0.0,54,1732622149,1732656430
New Britain,-72.7795,41.6612,804,Clouds,overcast clouds,6.03,,4.76,8.08,1009,89,10000.0,2.57,10,0.0,100,1732622032,1732656223
